{"result":[{"arrival":"18:00:00","id":"S10S","lat":"40.515401","lon":"-74.245689","name":"Atlantic"},{"arrival":"18:00:00","id":"638N","lat":"40.722301","lon":"-73.997141","name":"Spring St"},{"arrival":"18:00:00","id":"G15N","lat":"40.749669","lon":"-73.898453","name":"65 St"},{"arrival":"18:00:30","id":"242S","lat":"40.662742","lon":"-73.95085","name":"Sterling St"},{"arrival":"18:00:30","id":"602S","lat":"40.84681","lon":"-73.832569","name":"Buhre Av"},{"arrival":"18:00:30","id":"602S","lat":"40.84681","lon":"-73.832569","name":"Buhre Av"},{"arrival":"18:00:30","id":"E01S","lat":"40.712582","lon":"-74.009781","name":"World Trade Center"},{"arrival":"18:00:30","id":"M06S","lat":"40.702762","lon":"-73.90774","name":"Seneca Av"},{"arrival":"18:00:00","id":"R04N","lat":"40.766779","lon":"-73.921479","name":"30 Av"},{"arrival":"18:00:30","id":"M06N","lat":"40.702762","lon":"-73.90774","name":"Seneca Av"},{"arrival":"18:00:30","id":"J21N","lat":"40.68141","lon":"-73.880039","name":"Norwood Av"},{"arrival":"18:00:00","id":"R13N","lat":"40.764811","lon":"-73.973347","name":"5 Av/59 St"},{"arrival":"18:00:30","id":"123N","lat":"40.778453","lon":"-73.98197","name":"72 St"},{"arrival":"18:00:00","id":"H02S","lat":"40.668234","lon":"-73.834058","name":"Aqueduct - N Conduit Av"},{"arrival":"18:00:30","id":"701N","lat":"40.7596","lon":"-73.83003","name":"Flushing - Main St"},{"arrival":"18:00:30","id":"F04N","lat":"40.70546","lon":"-73.810708","name":"Sutphin Blvd"},{"arrival":"18:00:30","id":"H15S","lat":"40.580903","lon":"-73.835592","name":"Rockaway Park - Beach 116 St"},{"arrival":"18:00:30","id":"A63S","lat":"40.681711","lon":"-73.837683","name":"104 St"},{"arrival":"18:00:00","id":"A14S","lat":"40.817894","lon":"-73.947649","name":"135 St"},{"arrival":"18:00:30","id":"M13S","lat":"40.703869","lon":"-73.947408","name":"Lorimer St"},{"arrival":"18:00:00","id":"A22N","lat":"40.775594","lon":"-73.97641","name":"72 St"},{"arrival":"18:00:00","id":"A22N","lat":"40.775594","lon":"-73.97641","name":"72 St"},{"arrival":"18:00:00","id":"419S","lat":"40.707557","lon":"-74.011862","name":"Wall St"},{"arrival":"18:00:00","id":"419S","lat":"40.707557","lon":"-74.011862","name":"Wall St"},{"arrival":"18:00:00","id":"A52N","lat":"40.674542","lon":"-73.896548","name":"Liberty Av"},{"arrival":"18:00:00","id":"J16N","lat":"40.692435","lon":"-73.86001","name":"85 St - Forest Pkwy"},{"arrival":"18:00:00","id":"G12S","lat":"40.737015","lon":"-73.877223","name":"Grand Av - Newtown"},{"arrival":"18:00:00","id":"109S","lat":"40.860531","lon":"-73.925536","name":"Dyckman St"},{"arrival":"18:00:00","id":"D29S","lat":"40.644031","lon":"-73.964492","name":"Beverly Rd"},{"arrival":"18:00:00","id":"D29S","lat":"40.644031","lon":"-73.964492","name":"Beverly Rd"},{"arrival":"18:00:00","id":"213S","lat":"40.841894","lon":"-73.873488","name":"E 180 St"},{"arrival":"18:00:30","id":"213S","lat":"40.841894","lon":"-73.873488","name":"E 180 St"},{"arrival":"18:00:00","id":"213S","lat":"40.841894","lon":"-73.873488","name":"E 180 St"},{"arrival":"18:00:00","id":"A03S","lat":"40.865491","lon":"-73.927271","name":"Dyckman St"},{"arrival":"18:00:00","id":"130S","lat":"40.744081","lon":"-73.995657","name":"23 St"},{"arrival":"18:00:00","id":"L15S","lat":"40.706607","lon":"-73.922913","name":"Jefferson St"},{"arrival":"18:00:30","id":"416S","lat":"40.813224","lon":"-73.929849","name":"138 St - Grand Concourse"},{"arrival":"18:00:00","id":"416N","lat":"40.813224","lon":"-73.929849","name":"138 St - Grand Concourse"},{"arrival":"18:00:00","id":"130N","lat":"40.744081","lon":"-73.995657","name":"23 St"},{"arrival":"18:00:30","id":"L12N","lat":"40.711926","lon":"-73.94067","name":"Grand St"},{"arrival":"18:00:00","id":"L12N","lat":"40.711926","lon":"-73.94067","name":"Grand St"},{"arrival":"18:00:00","id":"M11N","lat":"40.697207","lon":"-73.935657","name":"Myrtle Av"},{"arrival":"18:00:00","id":"M11N","lat":"40.697207","lon":"-73.935657","name":"Myrtle Av"},{"arrival":"18:00:00","id":"705N","lat":"40.75173","lon":"-73.855334","name":"111 St"},{"arrival":"18:00:00","id":"B14N","lat":"40.63626","lon":"-73.994791","name":"50 St"},{"arrival":"18:00:00","id":"B14N","lat":"40.63626","lon":"-73.994791","name":"50 St"},{"arrival":"18:00:00","id":"M11S","lat":"40.697207","lon":"-73.935657","name":"Myrtle Av"},{"arrival":"18:00:00","id":"633N","lat":"40.74307","lon":"-73.984264","name":"28 St"},{"arrival":"18:00:00","id":"633N","lat":"40.74307","lon":"-73.984264","name":"28 St"},{"arrival":"18:00:30","id":"L12S","lat":"40.711926","lon":"-73.94067","name":"Grand St"},{"arrival":"18:00:00","id":"226N","lat":"40.802098","lon":"-73.949625","name":"116 St"},{"arrival":"18:00:30","id":"R36S","lat":"40.655144","lon":"-74.003549","name":"36 St"},{"arrival":"18:00:00","id":"250S","lat":"40.668897","lon":"-73.932942","name":"Crown Hts - Utica Av"},{"arrival":"18:00:30","id":"246N","lat":"40.639967","lon":"-73.948411","name":"Newkirk Av"},{"arrival":"18:00:00","id":"F16N","lat":"40.713715","lon":"-73.990173","name":"East Broadway"},{"arrival":"18:00:30","id":"R16S","lat":"40.754672","lon":"-73.986754","name":"Times Sq - 42 St"},{"arrival":"18:00:30","id":"R16S","lat":"40.754672","lon":"-73.986754","name":"Times Sq - 42 St"},{"arrival":"18:00:30","id":"G06S","lat":"40.700486","lon":"-73.807969","name":"Sutphin Blvd - Archer Av - JFK Airport"},{"arrival":"18:00:30","id":"723S","lat":"40.751431","lon":"-73.976041","name":"Grand Central - 42 St"},{"arrival":"18:00:30","id":"G18S","lat":"40.756312","lon":"-73.913333","name":"46 St"},{"arrival":"18:00:00","id":"423N","lat":"40.692404","lon":"-73.990151","name":"Borough Hall"},{"arrival":"18:00:00","id":"423N","lat":"40.692404","lon":"-73.990151","name":"Borough Hall"},{"arrival":"18:00:30","id":"423N","lat":"40.692404","lon":"-73.990151","name":"Borough Hall"},{"arrival":"18:00:00","id":"127S","lat":"40.75529","lon":"-73.987495","name":"Times Sq - 42 St"},{"arrival":"18:00:00","id":"221N","lat":"40.816109","lon":"-73.917757","name":"3 Av - 149 St"},{"arrival":"18:00:00","id":"127N","lat":"40.75529","lon":"-73.987495","name":"Times Sq - 42 St"},{"arrival":"18:00:00","id":"127N","lat":"40.75529","lon":"-73.987495","name":"Times Sq - 42 St"},{"arrival":"18:00:00","id":"135N","lat":"40.722854","lon":"-74.006277","name":"Canal St"},{"arrival":"18:00:00","id":"B20N","lat":"40.604556","lon":"-73.998168","name":"20 Av"},{"arrival":"18:00:00","id":"B20N","lat":"40.604556","lon":"-73.998168","name":"20 Av"},{"arrival":"18:00:00","id":"228N","lat":"40.713051","lon":"-74.008811","name":"Park Pl"},{"arrival":"18:00:00","id":"228N","lat":"40.713051","lon":"-74.008811","name":"Park Pl"},{"arrival":"18:00:00","id":"228S","lat":"40.713051","lon":"-74.008811","name":"Park Pl"},{"arrival":"18:00:30","id":"J31S","lat":"40.693342","lon":"-73.928814","name":"Kosciusko St"},{"arrival":"18:00:00","id":"B08S","lat":"40.764629","lon":"-73.966113","name":"Lexington Av/63 St"},{"arrival":"18:00:30","id":"L02S","lat":"40.737335","lon":"-73.996786","name":"6 Av"},{"arrival":"18:00:30","id":"L02S","lat":"40.737335","lon":"-73.996786","name":"6 Av"},{"arrival":"18:00:30","id":"L02N","lat":"40.737335","lon":"-73.996786","name":"6 Av"},{"arrival":"18:00:30","id":"L02N","lat":"40.737335","lon":"-73.996786","name":"6 Av"},{"arrival":"18:00:30","id":"A06N","lat":"40.851695","lon":"-73.937969","name":"181 St"},{"arrival":"18:00:00","id":"A44S","lat":"40.683263","lon":"-73.965838","name":"Clinton - Washington Avs"},{"arrival":"18:00:00","id":"G26S","lat":"40.731352","lon":"-73.954449","name":"Greenpoint Av"},{"arrival":"18:00:30","id":"G26S","lat":"40.731352","lon":"-73.954449","name":"Greenpoint Av"},{"arrival":"18:00:30","id":"B08N","lat":"40.764629","lon":"-73.966113","name":"Lexington Av/63 St"},{"arrival":"18:00:00","id":"216N","lat":"40.829993","lon":"-73.891865","name":"Freeman St"},{"arrival":"18:00:00","id":"216N","lat":"40.829993","lon":"-73.891865","name":"Freeman St"},{"arrival":"18:00:00","id":"R22S","lat":"40.724329","lon":"-73.997702","name":"Prince St"},{"arrival":"18:00:00","id":"R22S","lat":"40.724329","lon":"-73.997702","name":"Prince St"},{"arrival":"18:00:30","id":"624N","lat":"40.7906","lon":"-73.947478","name":"103 St"},{"arrival":"18:00:00","id":"608S","lat":"40.833226","lon":"-73.860816","name":"Parkchester"},{"arrival":"18:00:00","id":"608S","lat":"40.833226","lon":"-73.860816","name":"Parkchester"},{"arrival":"18:00:00","id":"A40S","lat":"40.699337","lon":"-73.990531","name":"High St"},{"arrival":"18:00:30","id":"A40S","lat":"40.699337","lon":"-73.990531","name":"High St"},{"arrival":"18:00:30","id":"L11S","lat":"40.714565","lon":"-73.944053","name":"Graham Av"},{"arrival":"18:00:00","id":"412S","lat":"40.840075","lon":"-73.917791","name":"170 St"},{"arrival":"18:00:30","id":"A36S","lat":"40.714111","lon":"-74.008585","name":"Chambers St"},{"arrival":"18:00:00","id":"M08S","lat":"40.69943","lon":"-73.912385","name":"Myrtle - Wyckoff Avs"},{"arrival":"18:00:30","id":"L29S","lat":"40.646654","lon":"-73.90185","name":"Canarsie - Rockaway Pkwy"},{"arrival":"18:00:30","id":"F01S","lat":"40.712646","lon":"-73.783817","name":"Jamaica - 179 St"},{"arrival":"18:00:00","id":"B10S","lat":"40.763972","lon":"-73.97745","name":"57 St"},{"arrival":"18:00:30","id":"L20N","lat":"40.688764","lon":"-73.904046","name":"Wilson Av"},{"arrival":"18:00:30","id":"L20N","lat":"40.688764","lon":"-73.904046","name":"Wilson Av"},{"arrival":"18:00:00","id":"A32S","lat":"40.732338","lon":"-74.000495","name":"W 4 St"},{"arrival":"18:00:30","id":"G31N","lat":"40.700377","lon":"-73.950234","name":"Flushing Av"},{"arrival":"18:00:30","id":"R09N","lat":"40.750582","lon":"-73.940202","name":"Queensboro Plaza"},{"arrival":"18:00:00","id":"L20S","lat":"40.688764","lon":"-73.904046","name":"Wilson Av"},{"arrival":"18:00:30","id":"718N","lat":"40.750582","lon":"-73.940202","name":"Queensboro Plaza"},{"arrival":"18:00:00","id":"R31N","lat":"40.683666","lon":"-73.97881","name":"Atlantic Av - Barclays Ctr"},{"arrival":"18:00:00","id":"B10N","lat":"40.763972","lon":"-73.97745","name":"57 St"},{"arrival":"18:00:30","id":"238N","lat":"40.671987","lon":"-73.964375","name":"Eastern Pkwy - Brooklyn Museum"},{"arrival":"18:00:30","id":"238N","lat":"40.671987","lon":"-73.964375","name":"Eastern Pkwy - Brooklyn Museum"},{"arrival":"18:00:30","id":"614S","lat":"40.816104","lon":"-73.896435","name":"Longwood Av"},{"arrival":"18:00:00","id":"122S","lat":"40.783934","lon":"-73.979917","name":"79 St"},{"arrival":"18:00:30","id":"238S","lat":"40.671987","lon":"-73.964375","name":"Eastern Pkwy - Brooklyn Museum"},{"arrival":"18:00:30","id":"114S","lat":"40.826551","lon":"-73.95036","name":"145 St"},{"arrival":"18:00:30","id":"H03S","lat":"40.660476","lon":"-73.830301","name":"Howard Beach - JFK Airport"},{"arrival":"18:00:30","id":"113S","lat":"40.834041","lon":"-73.94489","name":"157 St"},{"arrival":"18:00:00","id":"A21S","lat":"40.781433","lon":"-73.972143","name":"81 St - Museum of Natural History"},{"arrival":"18:00:00","id":"A21S","lat":"40.781433","lon":"-73.972143","name":"81 St - Museum of Natural History"},{"arrival":"18:00:00","id":"103S","lat":"40.884667","lon":"-73.90087","name":"238 St"},{"arrival":"18:00:30","id":"209N","lat":"40.871356","lon":"-73.867164","name":"Burke Av"},{"arrival":"18:00:30","id":"209N","lat":"40.871356","lon":"-73.867164","name":"Burke Av"},{"arrival":"18:00:30","id":"209N","lat":"40.871356","lon":"-73.867164","name":"Burke Av"},{"arrival":"18:00:00","id":"725S","lat":"40.755477","lon":"-73.987691","name":"Times Sq - 42 St"},{"arrival":"18:00:00","id":"725S","lat":"40.755477","lon":"-73.987691","name":"Times Sq - 42 St"},{"arrival":"18:00:00","id":"F23S","lat":"40.670272","lon":"-73.989779","name":"4 Av"},{"arrival":"18:00:30","id":"F23S","lat":"40.670272","lon":"-73.989779","name":"4 Av"},{"arrival":"18:00:30","id":"236S","lat":"40.680829","lon":"-73.975098","name":"Bergen St"},{"arrival":"18:00:30","id":"R43S","lat":"40.629742","lon":"-74.02551","name":"77 St"},{"arrival":"18:00:00","id":"131S","lat":"40.74104","lon":"-73.997871","name":"18 St"},{"arrival":"18:00:00","id":"628N","lat":"40.768141","lon":"-73.96387","name":"68 St - Hunter College"},{"arrival":"18:00:00","id":"411S","lat":"40.844434","lon":"-73.914685","name":"Mt Eden Av"},{"arrival":"18:00:00","id":"411S","lat":"40.844434","lon":"-73.914685","name":"Mt Eden Av"},{"arrival":"18:00:30","id":"A41S","lat":"40.692338","lon":"-73.987342","name":"Jay St - MetroTech"},{"arrival":"18:00:00","id":"A41S","lat":"40.692338","lon":"-73.987342","name":"Jay St - MetroTech"},{"arrival":"18:00:00","id":"D19N","lat":"40.738228","lon":"-73.996209","name":"14 St"},{"arrival":"18:00:00","id":"D19S","lat":"40.738228","lon":"-73.996209","name":"14 St"},{"arrival":"18:00:30","id":"D19S","lat":"40.738228","lon":"-73.996209","name":"14 St"},{"arrival":"18:00:00","id":"D42N","lat":"40.576127","lon":"-73.975939","name":"W 8 St - NY Aquarium"},{"arrival":"18:00:00","id":"F18S","lat":"40.701397","lon":"-73.986751","name":"York St"},{"arrival":"18:00:00","id":"632S","lat":"40.746081","lon":"-73.982076","name":"33 St"},{"arrival":"18:00:30","id":"A44N","lat":"40.683263","lon":"-73.965838","name":"Clinton - Washington Avs"},{"arrival":"18:00:30","id":"A44N","lat":"40.683263","lon":"-73.965838","name":"Clinton - Washington Avs"},{"arrival":"18:00:30","id":"M12S","lat":"40.70026","lon":"-73.941126","name":"Flushing Av"},{"arrival":"18:00:00","id":"D04S","lat":"40.866978","lon":"-73.893509","name":"Kingsbridge Rd"},{"arrival":"18:00:00","id":"632N","lat":"40.746081","lon":"-73.982076","name":"33 St"},{"arrival":"18:00:00","id":"B13N","lat":"40.640914","lon":"-73.994304","name":"Fort Hamilton Pkwy"},{"arrival":"18:00:30","id":"603N","lat":"40.843863","lon":"-73.836322","name":"Middletown Rd"},{"arrival":"18:00:00","id":"F05S","lat":"40.709179","lon":"-73.820574","name":"Briarwood - Van Wyck Blvd"},{"arrival":"18:00:00","id":"R35S","lat":"40.660397","lon":"-73.998091","name":"25 St"},{"arrival":"18:00:00","id":"R35S","lat":"40.660397","lon":"-73.998091","name":"25 St"},{"arrival":"18:00:30","id":"L24N","lat":"40.675345","lon":"-73.903097","name":"Atlantic Av"},{"arrival":"18:00:30","id":"R19N","lat":"40.741303","lon":"-73.989344","name":"23 St"},{"arrival":"18:00:30","id":"613N","lat":"40.820948","lon":"-73.890549","name":"Hunts Point Av"},{"arrival":"18:00:30","id":"R05N","lat":"40.76182","lon":"-73.925508","name":"Broadway"},{"arrival":"18:00:00","id":"R05N","lat":"40.76182","lon":"-73.925508","name":"Broadway"},{"arrival":"18:00:00","id":"505S","lat":"40.854364","lon":"-73.860495","name":"Morris Park"},{"arrival":"18:00:30","id":"110N","lat":"40.855225","lon":"-73.929412","name":"191 St"},{"arrival":"18:00:30","id":"110N","lat":"40.855225","lon":"-73.929412","name":"191 St"},{"arrival":"18:00:30","id":"110S","lat":"40.855225","lon":"-73.929412","name":"191 St"},{"arrival":"18:00:00","id":"106S","lat":"40.874561","lon":"-73.909831","name":"Marble Hill - 225 St"},{"arrival":"18:00:30","id":"R40N","lat":"40.645069","lon":"-74.014034","name":"53 St"},{"arrival":"18:00:30","id":"R40N","lat":"40.645069","lon":"-74.014034","name":"53 St"},{"arrival":"18:00:30","id":"R40N","lat":"40.645069","lon":"-74.014034","name":"53 St"},{"arrival":"18:00:00","id":"235N","lat":"40.684359","lon":"-73.977666","name":"Atlantic Av - Barclays Ctr"},{"arrival":"18:00:00","id":"235N","lat":"40.684359","lon":"-73.977666","name":"Atlantic Av - Barclays Ctr"},{"arrival":"18:00:00","id":"229N","lat":"40.709416","lon":"-74.006571","name":"Fulton St"},{"arrival":"18:00:30","id":"235S","lat":"40.684359","lon":"-73.977666","name":"Atlantic Av - Barclays Ctr"},{"arrival":"18:00:00","id":"M14N","lat":"40.70687","lon":"-73.953431","name":"Hewes St"},{"arrival":"18:00:30","id":"418N","lat":"40.710368","lon":"-74.009509","name":"Fulton St"},{"arrival":"18:00:00","id":"721N","lat":"40.742626","lon":"-73.953581","name":"Vernon Blvd - Jackson Av"},{"arrival":"18:00:00","id":"721N","lat":"40.742626","lon":"-73.953581","name":"Vernon Blvd - Jackson Av"},{"arrival":"18:00:30","id":"219S","lat":"40.819585","lon":"-73.90177","name":"Prospect Av"},{"arrival":"18:00:30","id":"A15S","lat":"40.811109","lon":"-73.952343","name":"125 St"},{"arrival":"18:00:30","id":"D33S","lat":"40.625039","lon":"-73.960803","name":"Avenue J"},{"arrival":"18:00:30","id":"140S","lat":"40.701411","lon":"-74.013205","name":"South Ferry Loop"},{"arrival":"18:00:30","id":"140S","lat":"40.701411","lon":"-74.013205","name":"South Ferry Loop"},{"arrival":"18:00:30","id":"402S","lat":"40.87975","lon":"-73.884655","name":"Mosholu Pkwy"},{"arrival":"18:00:00","id":"A15N","lat":"40.811109","lon":"-73.952343","name":"125 St"},{"arrival":"18:00:30","id":"219N","lat":"40.819585","lon":"-73.90177","name":"Prospect Av"},{"arrival":"18:00:30","id":"219N","lat":"40.819585","lon":"-73.90177","name":"Prospect Av"},{"arrival":"18:00:00","id":"721S","lat":"40.742626","lon":"-73.953581","name":"Vernon Blvd - Jackson Av"},{"arrival":"18:00:30","id":"721S","lat":"40.742626","lon":"-73.953581","name":"Vernon Blvd - Jackson Av"},{"arrival":"18:00:30","id":"205N","lat":"40.893193","lon":"-73.857473","name":"233 St"},{"arrival":"18:00:30","id":"640S","lat":"40.713065","lon":"-74.004131","name":"Brooklyn Bridge - City Hall"},{"arrival":"18:00:00","id":"635N","lat":"40.734673","lon":"-73.989951","name":"14 St - Union Sq"},{"arrival":"18:00:30","id":"D34N","lat":"40.617618","lon":"-73.959399","name":"Avenue M"},{"arrival":"18:00:30","id":"D34N","lat":"40.617618","lon":"-73.959399","name":"Avenue M"},{"arrival":"18:00:00","id":"R41N","lat":"40.641362","lon":"-74.017881","name":"59 St"},{"arrival":"18:00:00","id":"R41N","lat":"40.641362","lon":"-74.017881","name":"59 St"},{"arrival":"18:00:00","id":"R41N","lat":"40.641362","lon":"-74.017881","name":"59 St"},{"arrival":"18:00:00","id":"M23N","lat":"40.706476","lon":"-74.011056","name":"Broad St"},{"arrival":"18:00:30","id":"621N","lat":"40.804138","lon":"-73.937594","name":"125 St"},{"arrival":"18:00:00","id":"621N","lat":"40.804138","lon":"-73.937594","name":"125 St"},{"arrival":"18:00:00","id":"621N","lat":"40.804138","lon":"-73.937594","name":"125 St"},{"arrival":"18:00:30","id":"B04N","lat":"40.754203","lon":"-73.942836","name":"21 St - Queensbridge"},{"arrival":"18:00:00","id":"212N","lat":"40.848828","lon":"-73.868457","name":"Bronx Park East"},{"arrival":"18:00:30","id":"J15N","lat":"40.693879","lon":"-73.851576","name":"Woodhaven Blvd"},{"arrival":"18:00:30","id":"J15N","lat":"40.693879","lon":"-73.851576","name":"Woodhaven Blvd"},{"arrival":"18:00:00","id":"J15S","lat":"40.693879","lon":"-73.851576","name":"Woodhaven Blvd"},{"arrival":"18:00:30","id":"M23S","lat":"40.706476","lon":"-74.011056","name":"Broad St"},{"arrival":"18:00:00","id":"640N","lat":"40.713065","lon":"-74.004131","name":"Brooklyn Bridge - City Hall"},{"arrival":"18:00:00","id":"D15S","lat":"40.758663","lon":"-73.981329","name":"47-50 Sts - Rockefeller Ctr"},{"arrival":"18:00:30","id":"D15S","lat":"40.758663","lon":"-73.981329","name":"47-50 Sts - Rockefeller Ctr"},{"arrival":"18:00:00","id":"A31N","lat":"40.740893","lon":"-74.00169","name":"14 St"},{"arrival":"18:00:00","id":"A31N","lat":"40.740893","lon":"-74.00169","name":"14 St"},{"arrival":"18:00:00","id":"F27N","lat":"40.644041","lon":"-73.979678","name":"Church Av"},{"arrival":"18:00:00","id":"F02S","lat":"40.71047","lon":"-73.793604","name":"169 St"},{"arrival":"18:00:00","id":"F02N","lat":"40.71047","lon":"-73.793604","name":"169 St"},{"arrival":"18:00:30","id":"F02N","lat":"40.71047","lon":"-73.793604","name":"169 St"},{"arrival":"18:00:30","id":"D15N","lat":"40.758663","lon":"-73.981329","name":"47-50 Sts - Rockefeller Ctr"},{"arrival":"18:00:30","id":"D15N","lat":"40.758663","lon":"-73.981329","name":"47-50 Sts - Rockefeller Ctr"},{"arrival":"18:00:30","id":"F38N","lat":"40.58962","lon":"-73.97425","name":"Avenue X"},{"arrival":"18:00:30","id":"G05N","lat":"40.702147","lon":"-73.801109","name":"Jamaica Center - Parsons/Archer"},{"arrival":"18:00:00","id":"R30S","lat":"40.690635","lon":"-73.981824","name":"DeKalb Av"},{"arrival":"18:00:00","id":"R30S","lat":"40.690635","lon":"-73.981824","name":"DeKalb Av"},{"arrival":"18:00:00","id":"R30S","lat":"40.690635","lon":"-73.981824","name":"DeKalb Av"},{"arrival":"18:00:30","id":"L19S","lat":"40.695602","lon":"-73.904084","name":"Halsey St"},{"arrival":"18:00:00","id":"719S","lat":"40.747023","lon":"-73.945264","name":"Court Sq"},{"arrival":"18:00:00","id":"L21S","lat":"40.682829","lon":"-73.905249","name":"Bushwick Av - Aberdeen St"},{"arrival":"18:00:30","id":"L21S","lat":"40.682829","lon":"-73.905249","name":"Bushwick Av - Aberdeen St"},{"arrival":"18:00:30","id":"719N","lat":"40.747023","lon":"-73.945264","name":"Court Sq"},{"arrival":"18:00:30","id":"719N","lat":"40.747023","lon":"-73.945264","name":"Court Sq"},{"arrival":"18:00:30","id":"136N","lat":"40.719318","lon":"-74.006886","name":"Franklin St"},{"arrival":"18:00:30","id":"617N","lat":"40.805368","lon":"-73.914042","name":"Cypress Av"},{"arrival":"18:00:00","id":"607N","lat":"40.834255","lon":"-73.851222","name":"Castle Hill Av"},{"arrival":"18:00:00","id":"607N","lat":"40.834255","lon":"-73.851222","name":"Castle Hill Av"},{"arrival":"18:00:30","id":"607N","lat":"40.834255","lon":"-73.851222","name":"Castle Hill Av"},{"arrival":"18:00:00","id":"257S","lat":"40.666235","lon":"-73.884079","name":"New Lots Av"},{"arrival":"18:00:00","id":"257S","lat":"40.666235","lon":"-73.884079","name":"New Lots Av"},{"arrival":"18:00:00","id":"710S","lat":"40.746848","lon":"-73.891394","name":"74 St - Broadway"},{"arrival":"18:00:00","id":"N09S","lat":"40.597473","lon":"-73.979137","name":"Avenue U"},{"arrival":"18:00:00","id":"N09S","lat":"40.597473","lon":"-73.979137","name":"Avenue U"},{"arrival":"18:00:00","id":"227S","lat":"40.799075","lon":"-73.951822","name":"Central Park North (110 St)"},{"arrival":"18:00:00","id":"G05S","lat":"40.702147","lon":"-73.801109","name":"Jamaica Center - Parsons/Archer"},{"arrival":"18:00:30","id":"R18S","lat":"40.745494","lon":"-73.988691","name":"28 St"},{"arrival":"18:00:30","id":"136S","lat":"40.719318","lon":"-74.006886","name":"Franklin St"},{"arrival":"18:00:30","id":"230S","lat":"40.706821","lon":"-74.0091","name":"Wall St"},{"arrival":"18:00:30","id":"420N","lat":"40.704817","lon":"-74.014065","name":"Bowling Green"},{"arrival":"18:00:00","id":"A20S","lat":"40.785868","lon":"-73.968916","name":"86 St"},{"arrival":"18:00:30","id":"D20S","lat":"40.732338","lon":"-74.000495","name":"W 4 St"},{"arrival":"18:00:00","id":"D20S","lat":"40.732338","lon":"-74.000495","name":"W 4 St"},{"arrival":"18:00:00","id":"A61S","lat":"40.680429","lon":"-73.843853","name":"Rockaway Blvd"},{"arrival":"18:00:00","id":"D20N","lat":"40.732338","lon":"-74.000495","name":"W 4 St"},{"arrival":"18:00:00","id":"708S","lat":"40.748408","lon":"-73.876613","name":"90 St - Elmhurst Av"},{"arrival":"18:00:30","id":"708S","lat":"40.748408","lon":"-73.876613","name":"90 St - Elmhurst Av"},{"arrival":"18:00:30","id":"A20N","lat":"40.785868","lon":"-73.968916","name":"86 St"},{"arrival":"18:00:00","id":"E01N","lat":"40.712582","lon":"-74.009781","name":"World Trade Center"},{"arrival":"18:00:00","id":"622N","lat":"40.798629","lon":"-73.941617","name":"116 St"},{"arrival":"18:00:30","id":"622N","lat":"40.798629","lon":"-73.941617","name":"116 St"},{"arrival":"18:00:30","id":"215N","lat":"40.837288","lon":"-73.887734","name":"174 St"},{"arrival":"18:00:00","id":"D27N","lat":"40.655292","lon":"-73.961495","name":"Parkside Av"},{"arrival":"18:00:00","id":"D27N","lat":"40.655292","lon":"-73.961495","name":"Parkside Av"},{"arrival":"18:00:00","id":"F20S","lat":"40.686145","lon":"-73.990862","name":"Bergen St"},{"arrival":"18:00:00","id":"724N","lat":"40.753821","lon":"-73.981963","name":"5 Av"},{"arrival":"18:00:30","id":"F20N","lat":"40.686145","lon":"-73.990862","name":"Bergen St"},{"arrival":"18:00:00","id":"F20N","lat":"40.686145","lon":"-73.990862","name":"Bergen St"},{"arrival":"18:00:30","id":"622S","lat":"40.798629","lon":"-73.941617","name":"116 St"},{"arrival":"18:00:00","id":"G09S","lat":"40.726523","lon":"-73.852719","name":"67 Av"},{"arrival":"18:00:00","id":"G09S","lat":"40.726523","lon":"-73.852719","name":"67 Av"},{"arrival":"18:00:00","id":"F33N","lat":"40.61514","lon":"-73.974197","name":"Avenue N"},{"arrival":"18:00:00","id":"F33N","lat":"40.61514","lon":"-73.974197","name":"Avenue N"},{"arrival":"18:00:30","id":"132S","lat":"40.737826","lon":"-74.000201","name":"14 St"},{"arrival":"18:00:30","id":"132S","lat":"40.737826","lon":"-74.000201","name":"14 St"},{"arrival":"18:00:00","id":"901N","lat":"40.752769","lon":"-73.979189","name":"Grand Central - 42 St"},{"arrival":"18:00:00","id":"901N","lat":"40.752769","lon":"-73.979189","name":"Grand Central - 42 St"},{"arrival":"18:00:00","id":"M18N","lat":"40.718315","lon":"-73.987437","name":"Essex St"},{"arrival":"18:00:30","id":"901S","lat":"40.752769","lon":"-73.979189","name":"Grand Central - 42 St"},{"arrival":"18:00:00","id":"901S","lat":"40.752769","lon":"-73.979189","name":"Grand Central - 42 St"},{"arrival":"18:00:30","id":"901S","lat":"40.752769","lon":"-73.979189","name":"Grand Central - 42 St"},{"arrival":"18:00:30","id":"F33S","lat":"40.61514","lon":"-73.974197","name":"Avenue N"},{"arrival":"18:00:30","id":"D37N","lat":"40.5993","lon":"-73.955929","name":"Avenue U"},{"arrival":"18:00:00","id":"D01N","lat":"40.874811","lon":"-73.878855","name":"Norwood - 205 St"},{"arrival":"18:00:00","id":"D01N","lat":"40.874811","lon":"-73.878855","name":"Norwood - 205 St"},{"arrival":"18:00:30","id":"625S","lat":"40.785672","lon":"-73.95107","name":"96 St"},{"arrival":"18:00:00","id":"631N","lat":"40.751776","lon":"-73.976848","name":"Grand Central - 42 St"},{"arrival":"18:00:30","id":"A57S","lat":"40.677044","lon":"-73.86505","name":"Grant Av"},{"arrival":"18:00:30","id":"A57S","lat":"40.677044","lon":"-73.86505","name":"Grant Av"},{"arrival":"18:00:00","id":"J28S","lat":"40.682893","lon":"-73.910456","name":"Chauncey St"},{"arrival":"18:00:00","id":"D01S","lat":"40.874811","lon":"-73.878855","name":"Norwood - 205 St"},{"arrival":"18:00:00","id":"715N","lat":"40.743781","lon":"-73.924016","name":"40 St"},{"arrival":"18:00:30","id":"F06S","lat":"40.714441","lon":"-73.831008","name":"Kew Gardens - Union Tpke"},{"arrival":"18:00:00","id":"R34N","lat":"40.665414","lon":"-73.992872","name":"Prospect Av"},{"arrival":"18:00:00","id":"R34S","lat":"40.665414","lon":"-73.992872","name":"Prospect Av"},{"arrival":"18:00:30","id":"715S","lat":"40.743781","lon":"-73.924016","name":"40 St"},{"arrival":"18:00:30","id":"F06N","lat":"40.714441","lon":"-73.831008","name":"Kew Gardens - Union Tpke"},{"arrival":"18:00:30","id":"M04S","lat":"40.706186","lon":"-73.895877","name":"Fresh Pond Rd"},{"arrival":"18:00:00","id":"L25S","lat":"40.669367","lon":"-73.901975","name":"Sutter Av"},{"arrival":"18:00:00","id":"S19S","lat":"40.551231","lon":"-74.151399","name":"Great Kills"},{"arrival":"18:00:30","id":"A38S","lat":"40.710197","lon":"-74.007691","name":"Fulton St"},{"arrival":"18:00:00","id":"L25N","lat":"40.669367","lon":"-73.901975","name":"Sutter Av"},{"arrival":"18:00:00","id":"612N","lat":"40.826525","lon":"-73.886283","name":"Whitlock Av"},{"arrival":"18:00:00","id":"115N","lat":"40.822008","lon":"-73.953676","name":"137 St - City College"},{"arrival":"18:00:00","id":"115N","lat":"40.822008","lon":"-73.953676","name":"137 St - City College"},{"arrival":"18:00:30","id":"125N","lat":"40.768247","lon":"-73.981929","name":"59 St - Columbus Circle"},{"arrival":"18:00:00","id":"125N","lat":"40.768247","lon":"-73.981929","name":"59 St - Columbus Circle"},{"arrival":"18:00:30","id":"R11N","lat":"40.76266","lon":"-73.967258","name":"Lexington Av/59 St"},{"arrival":"18:00:30","id":"R11N","lat":"40.76266","lon":"-73.967258","name":"Lexington Av/59 St"},{"arrival":"18:00:00","id":"125S","lat":"40.768247","lon":"-73.981929","name":"59 St - Columbus Circle"},{"arrival":"18:00:00","id":"115S","lat":"40.822008","lon":"-73.953676","name":"137 St - City College"},{"arrival":"18:00:30","id":"A16S","lat":"40.805085","lon":"-73.954882","name":"116 St"},{"arrival":"18:00:00","id":"F24N","lat":"40.666271","lon":"-73.980305","name":"7 Av"},{"arrival":"18:00:30","id":"218S","lat":"40.822181","lon":"-73.896736","name":"Intervale Av"},{"arrival":"18:00:30","id":"137N","lat":"40.715478","lon":"-74.009266","name":"Chambers St"},{"arrival":"18:00:00","id":"137S","lat":"40.715478","lon":"-74.009266","name":"Chambers St"},{"arrival":"18:00:00","id":"218N","lat":"40.822181","lon":"-73.896736","name":"Intervale Av"},{"arrival":"18:00:00","id":"720S","lat":"40.742216","lon":"-73.948916","name":"Hunters Point Av"},{"arrival":"18:00:00","id":"D24N","lat":"40.68446","lon":"-73.97689","name":"Atlantic Av - Barclays Ctr"},{"arrival":"18:00:00","id":"D43N","lat":"40.577422","lon":"-73.981233","name":"Coney Island - Stillwell Av"},{"arrival":"18:00:00","id":"F36S","lat":"40.596063","lon":"-73.973357","name":"Avenue U"},{"arrival":"18:00:30","id":"F36S","lat":"40.596063","lon":"-73.973357","name":"Avenue U"},{"arrival":"18:00:00","id":"F36S","lat":"40.596063","lon":"-73.973357","name":"Avenue U"},{"arrival":"18:00:30","id":"R24N","lat":"40.713282","lon":"-74.006978","name":"City Hall"},{"arrival":"18:00:00","id":"626N","lat":"40.779492","lon":"-73.955589","name":"86 St"},{"arrival":"18:00:00","id":"626N","lat":"40.779492","lon":"-73.955589","name":"86 St"},{"arrival":"18:00:30","id":"211N","lat":"40.857192","lon":"-73.867615","name":"Pelham Pkwy"},{"arrival":"18:00:00","id":"626S","lat":"40.779492","lon":"-73.955589","name":"86 St"},{"arrival":"18:00:00","id":"626S","lat":"40.779492","lon":"-73.955589","name":"86 St"},{"arrival":"18:00:30","id":"R24S","lat":"40.713282","lon":"-74.006978","name":"City Hall"},{"arrival":"18:00:30","id":"634S","lat":"40.739864","lon":"-73.986599","name":"23 St"},{"arrival":"18:00:30","id":"634S","lat":"40.739864","lon":"-73.986599","name":"23 St"},{"arrival":"18:00:00","id":"D43S","lat":"40.577422","lon":"-73.981233","name":"Coney Island - Stillwell Av"},{"arrival":"18:00:00","id":"629N","lat":"40.762526","lon":"-73.967967","name":"59 St"},{"arrival":"18:00:30","id":"629N","lat":"40.762526","lon":"-73.967967","name":"59 St"},{"arrival":"18:00:00","id":"A30N","lat":"40.745906","lon":"-73.998041","name":"23 St"},{"arrival":"18:00:00","id":"L17S","lat":"40.699814","lon":"-73.911586","name":"Myrtle - Wyckoff Avs"},{"arrival":"18:00:30","id":"G21N","lat":"40.748973","lon":"-73.937243","name":"Queens Plaza"},{"arrival":"18:00:00","id":"G21N","lat":"40.748973","lon":"-73.937243","name":"Queens Plaza"},{"arrival":"18:00:00","id":"G21N","lat":"40.748973","lon":"-73.937243","name":"Queens Plaza"},{"arrival":"18:00:00","id":"L17N","lat":"40.699814","lon":"-73.911586","name":"Myrtle - Wyckoff Avs"},{"arrival":"18:00:00","id":"629S","lat":"40.762526","lon":"-73.967967","name":"59 St"},{"arrival":"18:00:00","id":"629S","lat":"40.762526","lon":"-73.967967","name":"59 St"},{"arrival":"18:00:30","id":"629S","lat":"40.762526","lon":"-73.967967","name":"59 St"},{"arrival":"18:00:30","id":"629S","lat":"40.762526","lon":"-73.967967","name":"59 St"},{"arrival":"18:00:00","id":"A42N","lat":"40.688484","lon":"-73.985001","name":"Hoyt - Schermerhorn Sts"},{"arrival":"18:00:30","id":"B12S","lat":"40.646292","lon":"-73.994324","name":"9 Av"},{"arrival":"18:00:30","id":"A33N","lat":"40.726227","lon":"-74.003739","name":"Spring St"},{"arrival":"18:00:00","id":"L06N","lat":"40.730953","lon":"-73.981628","name":"1 Av"},{"arrival":"18:00:00","id":"L06N","lat":"40.730953","lon":"-73.981628","name":"1 Av"},{"arrival":"18:00:00","id":"D05S","lat":"40.861296","lon":"-73.897749","name":"Fordham Rd"},{"arrival":"18:00:00","id":"619S","lat":"40.810476","lon":"-73.926138","name":"3 Av - 138 St"},{"arrival":"18:00:30","id":"619S","lat":"40.810476","lon":"-73.926138","name":"3 Av - 138 St"},{"arrival":"18:00:30","id":"619S","lat":"40.810476","lon":"-73.926138","name":"3 Av - 138 St"},{"arrival":"18:00:00","id":"A33S","lat":"40.726227","lon":"-74.003739","name":"Spring St"},{"arrival":"18:00:30","id":"D11S","lat":"40.827905","lon":"-73.925651","name":"161 St - Yankee Stadium"},{"arrival":"18:00:00","id":"R14N","lat":"40.764664","lon":"-73.980658","name":"57 St - 7 Av"},{"arrival":"18:00:00","id":"R14N","lat":"40.764664","lon":"-73.980658","name":"57 St - 7 Av"},{"arrival":"18:00:30","id":"248S","lat":"40.669847","lon":"-73.950466","name":"Nostrand Av"},{"arrival":"18:00:00","id":"224N","lat":"40.814229","lon":"-73.94077","name":"135 St"},{"arrival":"18:00:00","id":"224N","lat":"40.814229","lon":"-73.94077","name":"135 St"},{"arrival":"18:00:30","id":"256S","lat":"40.665449","lon":"-73.889395","name":"Van Siclen Av"},{"arrival":"18:00:30","id":"711S","lat":"40.746325","lon":"-73.896403","name":"69 St"},{"arrival":"18:00:00","id":"224S","lat":"40.814229","lon":"-73.94077","name":"135 St"},{"arrival":"18:00:30","id":"224S","lat":"40.814229","lon":"-73.94077","name":"135 St"},{"arrival":"18:00:30","id":"248N","lat":"40.669847","lon":"-73.950466","name":"Nostrand Av"},{"arrival":"18:00:00","id":"120S","lat":"40.793919","lon":"-73.972323","name":"96 St"},{"arrival":"18:00:30","id":"120S","lat":"40.793919","lon":"-73.972323","name":"96 St"},{"arrival":"18:00:30","id":"R14S","lat":"40.764664","lon":"-73.980658","name":"57 St - 7 Av"},{"arrival":"18:00:00","id":"L08N","lat":"40.717304","lon":"-73.956872","name":"Bedford Av"},{"arrival":"18:00:30","id":"A49S","lat":"40.678822","lon":"-73.920786","name":"Ralph Av"},{"arrival":"18:00:00","id":"129S","lat":"40.747215","lon":"-73.993365","name":"28 St"},{"arrival":"18:00:30","id":"707N","lat":"40.749145","lon":"-73.869527","name":"Junction Blvd"},{"arrival":"18:00:30","id":"A31S","lat":"40.740893","lon":"-74.00169","name":"14 St"},{"arrival":"18:00:00","id":"A31S","lat":"40.740893","lon":"-74.00169","name":"14 St"},{"arrival":"18:00:00","id":"504N","lat":"40.858985","lon":"-73.855359","name":"Pelham Pkwy"},{"arrival":"18:00:00","id":"504N","lat":"40.858985","lon":"-73.855359","name":"Pelham Pkwy"},{"arrival":"18:00:30","id":"707S","lat":"40.749145","lon":"-73.869527","name":"Junction Blvd"},{"arrival":"18:00:00","id":"F26S","lat":"40.650782","lon":"-73.975776","name":"Fort Hamilton Pkwy"},{"arrival":"18:00:30","id":"118N","lat":"40.803967","lon":"-73.966847","name":"Cathedral Pkwy"},{"arrival":"18:00:30","id":"408S","lat":"40.858407","lon":"-73.903879","name":"183 St"},{"arrival":"18:00:00","id":"S26S","lat":"40.596612","lon":"-74.087368","name":"Old Town"},{"arrival":"18:00:00","id":"A38N","lat":"40.710197","lon":"-74.007691","name":"Fulton St"},{"arrival":"18:00:30","id":"A38N","lat":"40.710197","lon":"-74.007691","name":"Fulton St"},{"arrival":"18:00:00","id":"234S","lat":"40.688246","lon":"-73.980492","name":"Nevins St"},{"arrival":"18:00:30","id":"206S","lat":"40.888022","lon":"-73.860341","name":"225 St"},{"arrival":"18:00:30","id":"206S","lat":"40.888022","lon":"-73.860341","name":"225 St"},{"arrival":"18:00:30","id":"G08S","lat":"40.721691","lon":"-73.844521","name":"Forest Hills - 71 Av"},{"arrival":"18:00:30","id":"G24N","lat":"40.744065","lon":"-73.949724","name":"21 St"},{"arrival":"18:00:30","id":"G24N","lat":"40.744065","lon":"-73.949724","name":"21 St"},{"arrival":"18:00:00","id":"G32S","lat":"40.694568","lon":"-73.949046","name":"Myrtle - Willoughby Avs"},{"arrival":"18:00:00","id":"N05S","lat":"40.620671","lon":"-73.990414","name":"18 Av"},{"arrival":"18:00:00","id":"G08N","lat":"40.721691","lon":"-73.844521","name":"Forest Hills - 71 Av"},{"arrival":"18:00:00","id":"A34N","lat":"40.720824","lon":"-74.005229","name":"Canal St"},{"arrival":"18:00:30","id":"A34N","lat":"40.720824","lon":"-74.005229","name":"Canal St"},{"arrival":"18:00:00","id":"J29N","lat":"40.68637","lon":"-73.916559","name":"Halsey St"},{"arrival":"18:00:00","id":"R20S","lat":"40.735736","lon":"-73.990568","name":"14 St - Union Sq"},{"arrival":"18:00:00","id":"G11S","lat":"40.733106","lon":"-73.869229","name":"Woodhaven Blvd"},{"arrival":"18:00:00","id":"B15S","lat":"40.631435","lon":"-73.995476","name":"55 St"},{"arrival":"18:00:30","id":"M10S","lat":"40.697857","lon":"-73.927397","name":"Central Av"},{"arrival":"18:00:30","id":"D14N","lat":"40.762862","lon":"-73.981637","name":"7 Av"},{"arrival":"18:00:00","id":"D14N","lat":"40.762862","lon":"-73.981637","name":"7 Av"},{"arrival":"18:00:30","id":"R20N","lat":"40.735736","lon":"-73.990568","name":"14 St - Union Sq"},{"arrival":"18:00:30","id":"A34S","lat":"40.720824","lon":"-74.005229","name":"Canal St"},{"arrival":"18:00:00","id":"639N","lat":"40.718803","lon":"-74.000193","name":"Canal St"},{"arrival":"18:00:30","id":"241N","lat":"40.667883","lon":"-73.950683","name":"President St"},{"arrival":"18:00:00","id":"G14S","lat":"40.746644","lon":"-73.891338","name":"Jackson Hts - Roosevelt Av"},{"arrival":"18:00:30","id":"G14N","lat":"40.746644","lon":"-73.891338","name":"Jackson Hts - Roosevelt Av"},{"arrival":"18:00:00","id":"G14N","lat":"40.746644","lon":"-73.891338","name":"Jackson Hts - Roosevelt Av"},{"arrival":"18:00:00","id":"G14N","lat":"40.746644","lon":"-73.891338","name":"Jackson Hts - Roosevelt Av"},{"arrival":"18:00:00","id":"241S","lat":"40.667883","lon":"-73.950683","name":"President St"},{"arrival":"18:00:00","id":"Q01N","lat":"40.718383","lon":"-74.00046","name":"Canal St"},{"arrival":"18:00:00","id":"Q01N","lat":"40.718383","lon":"-74.00046","name":"Canal St"},{"arrival":"18:00:30","id":"716N","lat":"40.744587","lon":"-73.930997","name":"33 St"},{"arrival":"18:00:00","id":"601N","lat":"40.852462","lon":"-73.828121","name":"Pelham Bay Park"},{"arrival":"18:00:00","id":"124S","lat":"40.77344","lon":"-73.982209","name":"66 St - Lincoln Center"},{"arrival":"18:00:30","id":"116S","lat":"40.815581","lon":"-73.958372","name":"125 St"},{"arrival":"18:00:00","id":"S21N","lat":"40.56511","lon":"-74.12632","name":"Oakwood Heights"},{"arrival":"18:00:00","id":"233S","lat":"40.690545","lon":"-73.985065","name":"Hoyt St"},{"arrival":"18:00:30","id":"D21S","lat":"40.725297","lon":"-73.996204","name":"Broadway-Lafayette St"},{"arrival":"18:00:30","id":"D21N","lat":"40.725297","lon":"-73.996204","name":"Broadway-Lafayette St"},{"arrival":"18:00:30","id":"D21N","lat":"40.725297","lon":"-73.996204","name":"Broadway-Lafayette St"},{"arrival":"18:00:30","id":"101N","lat":"40.889248","lon":"-73.898583","name":"Van Cortlandt Park - 242 St"},{"arrival":"18:00:30","id":"138S","lat":"40.711835","lon":"-74.012188","name":"Cortlandt St"},{"arrival":"18:00:00","id":"623N","lat":"40.79502","lon":"-73.94425","name":"110 St"},{"arrival":"18:00:30","id":"A28N","lat":"40.752287","lon":"-73.993391","name":"34 St - Penn Station"},{"arrival":"18:00:30","id":"A28S","lat":"40.752287","lon":"-73.993391","name":"34 St - Penn Station"},{"arrival":"18:00:00","id":"A28S","lat":"40.752287","lon":"-73.993391","name":"34 St - Penn Station"},{"arrival":"18:00:00","id":"D28S","lat":"40.650527","lon":"-73.962982","name":"Church Av"},{"arrival":"18:00:30","id":"J17S","lat":"40.691324","lon":"-73.867139","name":"75 St"},{"arrival":"18:00:00","id":"G19N","lat":"40.756879","lon":"-73.92074","name":"Steinway St"},{"arrival":"18:00:00","id":"405S","lat":"40.873412","lon":"-73.890064","name":"Bedford Park Blvd - Lehman College"},{"arrival":"18:00:00","id":"L28N","lat":"40.650573","lon":"-73.899485","name":"E 105 St"},{"arrival":"18:00:00","id":"L16N","lat":"40.703811","lon":"-73.918425","name":"DeKalb Av"},{"arrival":"18:00:30","id":"L16N","lat":"40.703811","lon":"-73.918425","name":"DeKalb Av"},{"arrival":"18:00:00","id":"G19S","lat":"40.756879","lon":"-73.92074","name":"Steinway St"},{"arrival":"18:00:30","id":"A09S","lat":"40.840719","lon":"-73.939561","name":"168 St"},{"arrival":"18:00:00","id":"R08S","lat":"40.752882","lon":"-73.932755","name":"39 Av"},{"arrival":"18:00:00","id":"R08S","lat":"40.752882","lon":"-73.932755","name":"39 Av"},{"arrival":"18:00:00","id":"D10S","lat":"40.833771","lon":"-73.91844","name":"167 St"},{"arrival":"18:00:30","id":"D10S","lat":"40.833771","lon":"-73.91844","name":"167 St"},{"arrival":"18:00:30","id":"D10S","lat":"40.833771","lon":"-73.91844","name":"167 St"},{"arrival":"18:00:00","id":"A09N","lat":"40.840719","lon":"-73.939561","name":"168 St"},{"arrival":"18:00:00","id":"F07S","lat":"40.718331","lon":"-73.837324","name":"75 Av"},{"arrival":"18:00:30","id":"611N","lat":"40.828584","lon":"-73.879159","name":"Elder Av"},{"arrival":"18:00:00","id":"712N","lat":"40.74563","lon":"-73.902984","name":"Woodside - 61 St"},{"arrival":"18:00:30","id":"245S","lat":"40.645098","lon":"-73.948959","name":"Beverly Rd"},{"arrival":"18:00:30","id":"A54S","lat":"40.67413","lon":"-73.88075","name":"Shepherd Av"},{"arrival":"18:00:00","id":"251S","lat":"40.664717","lon":"-73.92261","name":"Sutter Av - Rutland Rd"},{"arrival":"18:00:00","id":"712S","lat":"40.74563","lon":"-73.902984","name":"Woodside - 61 St"},{"arrival":"18:00:30","id":"G10N","lat":"40.729846","lon":"-73.861604","name":"63 Dr - Rego Park"},{"arrival":"18:00:00","id":"L26S","lat":"40.664038","lon":"-73.900571","name":"Livonia Av"},{"arrival":"18:00:00","id":"L26S","lat":"40.664038","lon":"-73.900571","name":"Livonia Av"},{"arrival":"18:00:00","id":"H06N","lat":"40.590927","lon":"-73.796924","name":"Beach 67 St"},{"arrival":"18:00:30","id":"L26N","lat":"40.664038","lon":"-73.900571","name":"Livonia Av"},{"arrival":"18:00:00","id":"A36N","lat":"40.714111","lon":"-74.008585","name":"Chambers St"},{"arrival":"18:00:30","id":"128S","lat":"40.750373","lon":"-73.991057","name":"34 St - Penn Station"},{"arrival":"18:00:00","id":"H11S","lat":"40.603995","lon":"-73.755405","name":"Far Rockaway - Mott Av"},{"arrival":"18:00:30","id":"104S","lat":"40.878856","lon":"-73.904834","name":"231 St"},{"arrival":"18:00:30","id":"706S","lat":"40.749865","lon":"-73.8627","name":"103 St - Corona Plaza"},{"arrival":"18:00:30","id":"128N","lat":"40.750373","lon":"-73.991057","name":"34 St - Penn Station"},{"arrival":"18:00:00","id":"207N","lat":"40.883895","lon":"-73.862633","name":"219 St"},{"arrival":"18:00:00","id":"A27N","lat":"40.757308","lon":"-73.989735","name":"42 St - Port Authority Bus Terminal"},{"arrival":"18:00:30","id":"A27N","lat":"40.757308","lon":"-73.989735","name":"42 St - Port Authority Bus Terminal"},{"arrival":"18:00:00","id":"405N","lat":"40.873412","lon":"-73.890064","name":"Bedford Park Blvd - Lehman College"},{"arrival":"18:00:00","id":"405N","lat":"40.873412","lon":"-73.890064","name":"Bedford Park Blvd - Lehman College"},{"arrival":"18:00:30","id":"F22S","lat":"40.67358","lon":"-73.995959","name":"Smith - 9 Sts"},{"arrival":"18:00:00","id":"237N","lat":"40.675235","lon":"-73.971046","name":"Grand Army Plaza"},{"arrival":"18:00:00","id":"117N","lat":"40.807722","lon":"-73.96411","name":"116 St - Columbia University"},{"arrival":"18:00:00","id":"R42S","lat":"40.634967","lon":"-74.023377","name":"Bay Ridge Av"},{"arrival":"18:00:00","id":"119S","lat":"40.799446","lon":"-73.968379","name":"103 St"},{"arrival":"18:00:00","id":"119S","lat":"40.799446","lon":"-73.968379","name":"103 St"},{"arrival":"18:00:30","id":"409N","lat":"40.853453","lon":"-73.907684","name":"Burnside Av"},{"arrival":"18:00:30","id":"409N","lat":"40.853453","lon":"-73.907684","name":"Burnside Av"},{"arrival":"18:00:00","id":"A27S","lat":"40.757308","lon":"-73.989735","name":"42 St - Port Authority Bus Terminal"},{"arrival":"18:00:30","id":"207S","lat":"40.883895","lon":"-73.862633","name":"219 St"},{"arrival":"18:00:00","id":"217S","lat":"40.824073","lon":"-73.893064","name":"Simpson St"},{"arrival":"18:00:30","id":"217S","lat":"40.824073","lon":"-73.893064","name":"Simpson St"},{"arrival":"18:00:30","id":"A48S","lat":"40.679364","lon":"-73.930729","name":"Utica Av"},{"arrival":"18:00:00","id":"D31N","lat":"40.635082","lon":"-73.962793","name":"Newkirk Av"},{"arrival":"18:00:30","id":"A41N","lat":"40.692338","lon":"-73.987342","name":"Jay St - MetroTech"},{"arrival":"18:00:00","id":"A41N","lat":"40.692338","lon":"-73.987342","name":"Jay St - MetroTech"},{"arrival":"18:00:00","id":"637N","lat":"40.725915","lon":"-73.994659","name":"Bleecker St"},{"arrival":"18:00:30","id":"B06S","lat":"40.759145","lon":"-73.95326","name":"Roosevelt Island"},{"arrival":"18:00:30","id":"637S","lat":"40.725915","lon":"-73.994659","name":"Bleecker St"},{"arrival":"18:00:00","id":"A55S","lat":"40.675377","lon":"-73.872106","name":"Euclid Av"},{"arrival":"18:00:00","id":"D13N","lat":"40.824783","lon":"-73.944216","name":"145 St"},{"arrival":"18:00:00","id":"D13N","lat":"40.824783","lon":"-73.944216","name":"145 St"},{"arrival":"18:00:00","id":"423S","lat":"40.692404","lon":"-73.990151","name":"Borough Hall"},{"arrival":"18:00:00","id":"423S","lat":"40.692404","lon":"-73.990151","name":"Borough Hall"}]}