{"result":[{"arrival":"23:06:30","id":"413S","lat":"40.835537","lon":"-73.9214","name":"167 St"},{"arrival":"23:06:00","id":"R19S","lat":"40.741303","lon":"-73.989344","name":"23 St"},{"arrival":"23:06:30","id":"413N","lat":"40.835537","lon":"-73.9214","name":"167 St"},{"arrival":"23:06:30","id":"413N","lat":"40.835537","lon":"-73.9214","name":"167 St"},{"arrival":"23:06:00","id":"132N","lat":"40.737826","lon":"-74.000201","name":"14 St"},{"arrival":"23:06:00","id":"132N","lat":"40.737826","lon":"-74.000201","name":"14 St"},{"arrival":"23:06:30","id":"616N","lat":"40.808719","lon":"-73.907657","name":"E 143 St - St Mary's St"},{"arrival":"23:06:30","id":"128N","lat":"40.750373","lon":"-73.991057","name":"34 St - Penn Station"},{"arrival":"23:06:00","id":"128N","lat":"40.750373","lon":"-73.991057","name":"34 St - Penn Station"},{"arrival":"23:06:30","id":"128S","lat":"40.750373","lon":"-73.991057","name":"34 St - Penn Station"},{"arrival":"23:06:00","id":"R06N","lat":"40.756804","lon":"-73.929575","name":"36 Av"},{"arrival":"23:06:00","id":"111S","lat":"40.849505","lon":"-73.933596","name":"181 St"},{"arrival":"23:06:30","id":"113S","lat":"40.834041","lon":"-73.94489","name":"157 St"},{"arrival":"23:06:00","id":"113N","lat":"40.834041","lon":"-73.94489","name":"157 St"},{"arrival":"23:06:30","id":"601S","lat":"40.852462","lon":"-73.828121","name":"Pelham Bay Park"},{"arrival":"23:06:00","id":"F23N","lat":"40.670272","lon":"-73.989779","name":"4 Av"},{"arrival":"23:06:30","id":"F23N","lat":"40.670272","lon":"-73.989779","name":"4 Av"},{"arrival":"23:06:00","id":"103S","lat":"40.884667","lon":"-73.90087","name":"238 St"},{"arrival":"23:06:00","id":"A11N","lat":"40.830518","lon":"-73.941514","name":"155 St"},{"arrival":"23:06:30","id":"720S","lat":"40.742216","lon":"-73.948916","name":"Hunters Point Av"},{"arrival":"23:06:30","id":"601N","lat":"40.852462","lon":"-73.828121","name":"Pelham Bay Park"},{"arrival":"23:06:30","id":"235S","lat":"40.684359","lon":"-73.977666","name":"Atlantic Av - Barclays Ctr"},{"arrival":"23:06:00","id":"235S","lat":"40.684359","lon":"-73.977666","name":"Atlantic Av - Barclays Ctr"},{"arrival":"23:06:30","id":"235S","lat":"40.684359","lon":"-73.977666","name":"Atlantic Av - Barclays Ctr"},{"arrival":"23:06:30","id":"G32N","lat":"40.694568","lon":"-73.949046","name":"Myrtle - Willoughby Avs"},{"arrival":"23:06:30","id":"E01S","lat":"40.712582","lon":"-74.009781","name":"World Trade Center"},{"arrival":"23:06:30","id":"706N","lat":"40.749865","lon":"-73.8627","name":"103 St - Corona Plaza"},{"arrival":"23:06:30","id":"706N","lat":"40.749865","lon":"-73.8627","name":"103 St - Corona Plaza"},{"arrival":"23:06:00","id":"A60S","lat":"40.679843","lon":"-73.85147","name":"88 St"},{"arrival":"23:06:00","id":"633N","lat":"40.74307","lon":"-73.984264","name":"28 St"},{"arrival":"23:06:00","id":"G15N","lat":"40.749669","lon":"-73.898453","name":"65 St"},{"arrival":"23:06:00","id":"409N","lat":"40.853453","lon":"-73.907684","name":"Burnside Av"},{"arrival":"23:06:00","id":"235N","lat":"40.684359","lon":"-73.977666","name":"Atlantic Av - Barclays Ctr"},{"arrival":"23:06:00","id":"235N","lat":"40.684359","lon":"-73.977666","name":"Atlantic Av - Barclays Ctr"},{"arrival":"23:06:30","id":"423N","lat":"40.692404","lon":"-73.990151","name":"Borough Hall"},{"arrival":"23:06:30","id":"423N","lat":"40.692404","lon":"-73.990151","name":"Borough Hall"},{"arrival":"23:06:00","id":"G10N","lat":"40.729846","lon":"-73.861604","name":"63 Dr - Rego Park"},{"arrival":"23:06:00","id":"B14S","lat":"40.63626","lon":"-73.994791","name":"50 St"},{"arrival":"23:06:00","id":"701N","lat":"40.7596","lon":"-73.83003","name":"Flushing - Main St"},{"arrival":"23:06:30","id":"233S","lat":"40.690545","lon":"-73.985065","name":"Hoyt St"},{"arrival":"23:06:00","id":"R40S","lat":"40.645069","lon":"-74.014034","name":"53 St"},{"arrival":"23:06:00","id":"R30S","lat":"40.690635","lon":"-73.981824","name":"DeKalb Av"},{"arrival":"23:06:00","id":"S28N","lat":"40.621319","lon":"-74.071402","name":"Clifton"},{"arrival":"23:06:00","id":"D17N","lat":"40.749719","lon":"-73.987823","name":"34 St - Herald Sq"},{"arrival":"23:06:00","id":"612S","lat":"40.826525","lon":"-73.886283","name":"Whitlock Av"},{"arrival":"23:06:00","id":"A02S","lat":"40.868072","lon":"-73.919899","name":"Inwood - 207 St"},{"arrival":"23:06:00","id":"A02S","lat":"40.868072","lon":"-73.919899","name":"Inwood - 207 St"},{"arrival":"23:06:00","id":"628S","lat":"40.768141","lon":"-73.96387","name":"68 St - Hunter College"},{"arrival":"23:06:30","id":"R39S","lat":"40.648939","lon":"-74.010006","name":"45 St"},{"arrival":"23:06:00","id":"R39N","lat":"40.648939","lon":"-74.010006","name":"45 St"},{"arrival":"23:06:00","id":"628N","lat":"40.768141","lon":"-73.96387","name":"68 St - Hunter College"},{"arrival":"23:06:30","id":"628N","lat":"40.768141","lon":"-73.96387","name":"68 St - Hunter College"},{"arrival":"23:06:30","id":"628N","lat":"40.768141","lon":"-73.96387","name":"68 St - Hunter College"},{"arrival":"23:06:00","id":"Q01N","lat":"40.718383","lon":"-74.00046","name":"Canal St"},{"arrival":"23:06:30","id":"612N","lat":"40.826525","lon":"-73.886283","name":"Whitlock Av"},{"arrival":"23:06:00","id":"A43N","lat":"40.686113","lon":"-73.973946","name":"Lafayette Av"},{"arrival":"23:06:00","id":"A43N","lat":"40.686113","lon":"-73.973946","name":"Lafayette Av"},{"arrival":"23:06:30","id":"M13S","lat":"40.703869","lon":"-73.947408","name":"Lorimer St"},{"arrival":"23:06:30","id":"M13S","lat":"40.703869","lon":"-73.947408","name":"Lorimer St"},{"arrival":"23:06:00","id":"A48N","lat":"40.679364","lon":"-73.930729","name":"Utica Av"},{"arrival":"23:06:00","id":"634S","lat":"40.739864","lon":"-73.986599","name":"23 St"},{"arrival":"23:06:00","id":"D16N","lat":"40.754222","lon":"-73.984569","name":"42 St - Bryant Pk"},{"arrival":"23:06:30","id":"A48S","lat":"40.679364","lon":"-73.930729","name":"Utica Av"},{"arrival":"23:06:00","id":"A48S","lat":"40.679364","lon":"-73.930729","name":"Utica Av"},{"arrival":"23:06:30","id":"634N","lat":"40.739864","lon":"-73.986599","name":"23 St"},{"arrival":"23:06:00","id":"F09N","lat":"40.747846","lon":"-73.946","name":"Court Sq"},{"arrival":"23:06:30","id":"H14N","lat":"40.583209","lon":"-73.827559","name":"Beach 105 St"},{"arrival":"23:06:30","id":"B06S","lat":"40.759145","lon":"-73.95326","name":"Roosevelt Island"},{"arrival":"23:06:30","id":"B06S","lat":"40.759145","lon":"-73.95326","name":"Roosevelt Island"},{"arrival":"23:06:30","id":"D08S","lat":"40.8459","lon":"-73.910136","name":"174-175 Sts"},{"arrival":"23:06:30","id":"205S","lat":"40.893193","lon":"-73.857473","name":"233 St"},{"arrival":"23:06:30","id":"702S","lat":"40.754622","lon":"-73.845625","name":"Mets - Willets Point"},{"arrival":"23:06:30","id":"F05N","lat":"40.709179","lon":"-73.820574","name":"Briarwood - Van Wyck Blvd"},{"arrival":"23:06:00","id":"J14N","lat":"40.695178","lon":"-73.84433","name":"104 St"},{"arrival":"23:06:00","id":"J14N","lat":"40.695178","lon":"-73.84433","name":"104 St"},{"arrival":"23:06:30","id":"D25N","lat":"40.67705","lon":"-73.972367","name":"7 Av"},{"arrival":"23:06:30","id":"D25N","lat":"40.67705","lon":"-73.972367","name":"7 Av"},{"arrival":"23:06:00","id":"135N","lat":"40.722854","lon":"-74.006277","name":"Canal St"},{"arrival":"23:06:00","id":"302S","lat":"40.820421","lon":"-73.936245","name":"145 St"},{"arrival":"23:06:00","id":"302S","lat":"40.820421","lon":"-73.936245","name":"145 St"},{"arrival":"23:06:30","id":"503N","lat":"40.869526","lon":"-73.846384","name":"Gun Hill Rd"},{"arrival":"23:06:30","id":"503N","lat":"40.869526","lon":"-73.846384","name":"Gun Hill Rd"},{"arrival":"23:06:30","id":"R34N","lat":"40.665414","lon":"-73.992872","name":"Prospect Av"},{"arrival":"23:06:30","id":"503S","lat":"40.869526","lon":"-73.846384","name":"Gun Hill Rd"},{"arrival":"23:06:00","id":"504S","lat":"40.858985","lon":"-73.855359","name":"Pelham Pkwy"},{"arrival":"23:06:30","id":"104N","lat":"40.878856","lon":"-73.904834","name":"231 St"},{"arrival":"23:06:30","id":"104S","lat":"40.878856","lon":"-73.904834","name":"231 St"},{"arrival":"23:06:30","id":"R22S","lat":"40.724329","lon":"-73.997702","name":"Prince St"},{"arrival":"23:06:00","id":"R22S","lat":"40.724329","lon":"-73.997702","name":"Prince St"},{"arrival":"23:06:00","id":"G31N","lat":"40.700377","lon":"-73.950234","name":"Flushing Av"},{"arrival":"23:06:30","id":"G31S","lat":"40.700377","lon":"-73.950234","name":"Flushing Av"},{"arrival":"23:06:30","id":"G09S","lat":"40.726523","lon":"-73.852719","name":"67 Av"},{"arrival":"23:06:00","id":"G09S","lat":"40.726523","lon":"-73.852719","name":"67 Av"},{"arrival":"23:06:30","id":"N05S","lat":"40.620671","lon":"-73.990414","name":"18 Av"},{"arrival":"23:06:00","id":"216S","lat":"40.829993","lon":"-73.891865","name":"Freeman St"},{"arrival":"23:06:00","id":"F03S","lat":"40.707564","lon":"-73.803326","name":"Parsons Blvd"},{"arrival":"23:06:00","id":"G26S","lat":"40.731352","lon":"-73.954449","name":"Greenpoint Av"},{"arrival":"23:06:00","id":"408S","lat":"40.858407","lon":"-73.903879","name":"183 St"},{"arrival":"23:06:30","id":"D03N","lat":"40.873244","lon":"-73.887138","name":"Bedford Park Blvd"},{"arrival":"23:06:30","id":"D38S","lat":"40.595246","lon":"-73.955161","name":"Neck Rd"},{"arrival":"23:06:00","id":"D38S","lat":"40.595246","lon":"-73.955161","name":"Neck Rd"},{"arrival":"23:06:00","id":"F03N","lat":"40.707564","lon":"-73.803326","name":"Parsons Blvd"},{"arrival":"23:06:00","id":"216N","lat":"40.829993","lon":"-73.891865","name":"Freeman St"},{"arrival":"23:06:00","id":"216N","lat":"40.829993","lon":"-73.891865","name":"Freeman St"},{"arrival":"23:06:30","id":"A15N","lat":"40.811109","lon":"-73.952343","name":"125 St"},{"arrival":"23:06:00","id":"A20S","lat":"40.785868","lon":"-73.968916","name":"86 St"},{"arrival":"23:06:30","id":"D20S","lat":"40.732338","lon":"-74.000495","name":"W 4 St"},{"arrival":"23:06:30","id":"H10N","lat":"40.600066","lon":"-73.761353","name":"Beach 25 St"},{"arrival":"23:06:30","id":"G08S","lat":"40.721691","lon":"-73.844521","name":"Forest Hills - 71 Av"},{"arrival":"23:06:30","id":"140S","lat":"40.701411","lon":"-74.013205","name":"South Ferry Loop"},{"arrival":"23:06:30","id":"R16S","lat":"40.754672","lon":"-73.986754","name":"Times Sq - 42 St"},{"arrival":"23:06:30","id":"109N","lat":"40.860531","lon":"-73.925536","name":"Dyckman St"},{"arrival":"23:06:30","id":"109N","lat":"40.860531","lon":"-73.925536","name":"Dyckman St"},{"arrival":"23:06:00","id":"N05N","lat":"40.620671","lon":"-73.990414","name":"18 Av"},{"arrival":"23:06:30","id":"131S","lat":"40.74104","lon":"-73.997871","name":"18 St"},{"arrival":"23:06:00","id":"131S","lat":"40.74104","lon":"-73.997871","name":"18 St"},{"arrival":"23:06:00","id":"R16N","lat":"40.754672","lon":"-73.986754","name":"Times Sq - 42 St"},{"arrival":"23:06:00","id":"A33N","lat":"40.726227","lon":"-74.003739","name":"Spring St"},{"arrival":"23:06:00","id":"G09N","lat":"40.726523","lon":"-73.852719","name":"67 Av"},{"arrival":"23:06:00","id":"G18N","lat":"40.756312","lon":"-73.913333","name":"46 St"},{"arrival":"23:06:30","id":"M12S","lat":"40.70026","lon":"-73.941126","name":"Flushing Av"},{"arrival":"23:06:30","id":"D18N","lat":"40.742878","lon":"-73.992821","name":"23 St"},{"arrival":"23:06:30","id":"116N","lat":"40.815581","lon":"-73.958372","name":"125 St"},{"arrival":"23:06:30","id":"F06S","lat":"40.714441","lon":"-73.831008","name":"Kew Gardens - Union Tpke"},{"arrival":"23:06:00","id":"213S","lat":"40.841894","lon":"-73.873488","name":"E 180 St"},{"arrival":"23:06:00","id":"F31S","lat":"40.625322","lon":"-73.976127","name":"Avenue I"},{"arrival":"23:06:00","id":"F31S","lat":"40.625322","lon":"-73.976127","name":"Avenue I"},{"arrival":"23:06:30","id":"F06N","lat":"40.714441","lon":"-73.831008","name":"Kew Gardens - Union Tpke"},{"arrival":"23:06:30","id":"F06N","lat":"40.714441","lon":"-73.831008","name":"Kew Gardens - Union Tpke"},{"arrival":"23:06:00","id":"718S","lat":"40.750582","lon":"-73.940202","name":"Queensboro Plaza"},{"arrival":"23:06:30","id":"R42S","lat":"40.634967","lon":"-74.023377","name":"Bay Ridge Av"},{"arrival":"23:06:30","id":"R13N","lat":"40.764811","lon":"-73.973347","name":"5 Av/59 St"},{"arrival":"23:06:00","id":"J22S","lat":"40.679947","lon":"-73.884639","name":"Cleveland St"},{"arrival":"23:06:00","id":"J22S","lat":"40.679947","lon":"-73.884639","name":"Cleveland St"},{"arrival":"23:06:30","id":"D24S","lat":"40.68446","lon":"-73.97689","name":"Atlantic Av - Barclays Ctr"},{"arrival":"23:06:30","id":"A59S","lat":"40.679371","lon":"-73.858992","name":"80 St"},{"arrival":"23:06:30","id":"234S","lat":"40.688246","lon":"-73.980492","name":"Nevins St"},{"arrival":"23:06:30","id":"D10N","lat":"40.833771","lon":"-73.91844","name":"167 St"},{"arrival":"23:06:00","id":"226N","lat":"40.802098","lon":"-73.949625","name":"116 St"},{"arrival":"23:06:00","id":"D33N","lat":"40.625039","lon":"-73.960803","name":"Avenue J"},{"arrival":"23:06:00","id":"F09S","lat":"40.747846","lon":"-73.946","name":"Court Sq"},{"arrival":"23:06:00","id":"D07N","lat":"40.85041","lon":"-73.905227","name":"Tremont Av"},{"arrival":"23:06:00","id":"617N","lat":"40.805368","lon":"-73.914042","name":"Cypress Av"},{"arrival":"23:06:00","id":"A40N","lat":"40.699337","lon":"-73.990531","name":"High St"},{"arrival":"23:06:00","id":"607N","lat":"40.834255","lon":"-73.851222","name":"Castle Hill Av"},{"arrival":"23:06:00","id":"L25S","lat":"40.669367","lon":"-73.901975","name":"Sutter Av"},{"arrival":"23:06:00","id":"L25S","lat":"40.669367","lon":"-73.901975","name":"Sutter Av"},{"arrival":"23:06:00","id":"L25S","lat":"40.669367","lon":"-73.901975","name":"Sutter Av"},{"arrival":"23:06:00","id":"H07S","lat":"40.592374","lon":"-73.788522","name":"Beach 60 St"},{"arrival":"23:06:30","id":"A34S","lat":"40.720824","lon":"-74.005229","name":"Canal St"},{"arrival":"23:06:00","id":"B16N","lat":"40.626472","lon":"-73.996895","name":"62 St"},{"arrival":"23:06:00","id":"B16N","lat":"40.626472","lon":"-73.996895","name":"62 St"},{"arrival":"23:06:00","id":"S13N","lat":"40.519631","lon":"-74.229141","name":"Richmond Valley"},{"arrival":"23:06:00","id":"S13N","lat":"40.519631","lon":"-74.229141","name":"Richmond Valley"},{"arrival":"23:06:00","id":"S13N","lat":"40.519631","lon":"-74.229141","name":"Richmond Valley"},{"arrival":"23:06:30","id":"208S","lat":"40.87785","lon":"-73.866256","name":"Gun Hill Rd"},{"arrival":"23:06:00","id":"R45N","lat":"40.616622","lon":"-74.030876","name":"Bay Ridge - 95 St"},{"arrival":"23:06:00","id":"R45N","lat":"40.616622","lon":"-74.030876","name":"Bay Ridge - 95 St"},{"arrival":"23:06:30","id":"R45N","lat":"40.616622","lon":"-74.030876","name":"Bay Ridge - 95 St"},{"arrival":"23:06:00","id":"L11N","lat":"40.714565","lon":"-73.944053","name":"Graham Av"},{"arrival":"23:06:00","id":"L11N","lat":"40.714565","lon":"-73.944053","name":"Graham Av"},{"arrival":"23:06:00","id":"L11N","lat":"40.714565","lon":"-73.944053","name":"Graham Av"},{"arrival":"23:06:00","id":"631S","lat":"40.751776","lon":"-73.976848","name":"Grand Central - 42 St"},{"arrival":"23:06:00","id":"G14N","lat":"40.746644","lon":"-73.891338","name":"Jackson Hts - Roosevelt Av"},{"arrival":"23:06:00","id":"G14N","lat":"40.746644","lon":"-73.891338","name":"Jackson Hts - Roosevelt Av"},{"arrival":"23:06:00","id":"222N","lat":"40.81841","lon":"-73.926718","name":"149 St - Grand Concourse"},{"arrival":"23:06:30","id":"123N","lat":"40.778453","lon":"-73.98197","name":"72 St"},{"arrival":"23:06:00","id":"123S","lat":"40.778453","lon":"-73.98197","name":"72 St"},{"arrival":"23:06:30","id":"D27S","lat":"40.655292","lon":"-73.961495","name":"Parkside Av"},{"arrival":"23:06:30","id":"231S","lat":"40.697466","lon":"-73.993086","name":"Clark St"},{"arrival":"23:06:30","id":"D07S","lat":"40.85041","lon":"-73.905227","name":"Tremont Av"},{"arrival":"23:06:00","id":"D30S","lat":"40.640927","lon":"-73.963891","name":"Cortelyou Rd"},{"arrival":"23:06:30","id":"D30S","lat":"40.640927","lon":"-73.963891","name":"Cortelyou Rd"},{"arrival":"23:06:00","id":"242N","lat":"40.662742","lon":"-73.95085","name":"Sterling St"},{"arrival":"23:06:30","id":"R17S","lat":"40.749567","lon":"-73.98795","name":"34 St - Herald Sq"},{"arrival":"23:06:00","id":"R17N","lat":"40.749567","lon":"-73.98795","name":"34 St - Herald Sq"},{"arrival":"23:06:30","id":"622N","lat":"40.798629","lon":"-73.941617","name":"116 St"},{"arrival":"23:06:30","id":"A28S","lat":"40.752287","lon":"-73.993391","name":"34 St - Penn Station"},{"arrival":"23:06:30","id":"J21S","lat":"40.68141","lon":"-73.880039","name":"Norwood Av"},{"arrival":"23:06:00","id":"A32N","lat":"40.732338","lon":"-74.000495","name":"W 4 St"},{"arrival":"23:06:00","id":"A28N","lat":"40.752287","lon":"-73.993391","name":"34 St - Penn Station"},{"arrival":"23:06:30","id":"622S","lat":"40.798629","lon":"-73.941617","name":"116 St"},{"arrival":"23:06:00","id":"R31S","lat":"40.683666","lon":"-73.97881","name":"Atlantic Av - Barclays Ctr"},{"arrival":"23:06:00","id":"F26S","lat":"40.650782","lon":"-73.975776","name":"Fort Hamilton Pkwy"},{"arrival":"23:06:00","id":"101N","lat":"40.889248","lon":"-73.898583","name":"Van Cortlandt Park - 242 St"},{"arrival":"23:06:30","id":"101N","lat":"40.889248","lon":"-73.898583","name":"Van Cortlandt Park - 242 St"},{"arrival":"23:06:30","id":"A51N","lat":"40.678334","lon":"-73.905316","name":"Broadway Jct"},{"arrival":"23:06:30","id":"F21S","lat":"40.680303","lon":"-73.995048","name":"Carroll St"},{"arrival":"23:06:30","id":"R08N","lat":"40.752882","lon":"-73.932755","name":"39 Av"},{"arrival":"23:06:00","id":"A53N","lat":"40.67271","lon":"-73.890358","name":"Van Siclen Av"},{"arrival":"23:06:30","id":"714N","lat":"40.743132","lon":"-73.918435","name":"46 St"},{"arrival":"23:06:30","id":"G05N","lat":"40.702147","lon":"-73.801109","name":"Jamaica Center - Parsons/Archer"},{"arrival":"23:06:00","id":"B04N","lat":"40.754203","lon":"-73.942836","name":"21 St - Queensbridge"},{"arrival":"23:06:00","id":"639N","lat":"40.718803","lon":"-74.000193","name":"Canal St"},{"arrival":"23:06:30","id":"G05S","lat":"40.702147","lon":"-73.801109","name":"Jamaica Center - Parsons/Archer"},{"arrival":"23:06:30","id":"A22N","lat":"40.775594","lon":"-73.97641","name":"72 St"},{"arrival":"23:06:00","id":"228N","lat":"40.713051","lon":"-74.008811","name":"Park Pl"},{"arrival":"23:06:00","id":"228N","lat":"40.713051","lon":"-74.008811","name":"Park Pl"},{"arrival":"23:06:30","id":"719N","lat":"40.747023","lon":"-73.945264","name":"Court Sq"},{"arrival":"23:06:30","id":"719N","lat":"40.747023","lon":"-73.945264","name":"Court Sq"},{"arrival":"23:06:00","id":"228S","lat":"40.713051","lon":"-74.008811","name":"Park Pl"},{"arrival":"23:06:30","id":"R41S","lat":"40.641362","lon":"-74.017881","name":"59 St"},{"arrival":"23:06:00","id":"D29S","lat":"40.644031","lon":"-73.964492","name":"Beverly Rd"},{"arrival":"23:06:00","id":"R14N","lat":"40.764664","lon":"-73.980658","name":"57 St - 7 Av"},{"arrival":"23:06:30","id":"R14N","lat":"40.764664","lon":"-73.980658","name":"57 St - 7 Av"},{"arrival":"23:06:30","id":"R14N","lat":"40.764664","lon":"-73.980658","name":"57 St - 7 Av"},{"arrival":"23:06:00","id":"A55S","lat":"40.675377","lon":"-73.872106","name":"Euclid Av"},{"arrival":"23:06:00","id":"A31N","lat":"40.740893","lon":"-74.00169","name":"14 St"},{"arrival":"23:06:30","id":"127N","lat":"40.75529","lon":"-73.987495","name":"Times Sq - 42 St"},{"arrival":"23:06:00","id":"137S","lat":"40.715478","lon":"-74.009266","name":"Chambers St"},{"arrival":"23:06:30","id":"A52S","lat":"40.674542","lon":"-73.896548","name":"Liberty Av"},{"arrival":"23:06:30","id":"221S","lat":"40.816109","lon":"-73.917757","name":"3 Av - 149 St"},{"arrival":"23:06:00","id":"621S","lat":"40.804138","lon":"-73.937594","name":"125 St"},{"arrival":"23:06:00","id":"221N","lat":"40.816109","lon":"-73.917757","name":"3 Av - 149 St"},{"arrival":"23:06:30","id":"118N","lat":"40.803967","lon":"-73.966847","name":"Cathedral Pkwy"},{"arrival":"23:06:00","id":"N09N","lat":"40.597473","lon":"-73.979137","name":"Avenue U"},{"arrival":"23:06:30","id":"B22N","lat":"40.597704","lon":"-73.986829","name":"25 Av"},{"arrival":"23:06:00","id":"A09S","lat":"40.840719","lon":"-73.939561","name":"168 St"},{"arrival":"23:06:30","id":"F02S","lat":"40.71047","lon":"-73.793604","name":"169 St"},{"arrival":"23:06:00","id":"R35N","lat":"40.660397","lon":"-73.998091","name":"25 St"},{"arrival":"23:06:00","id":"M01N","lat":"40.711396","lon":"-73.889601","name":"Middle Village - Metropolitan Av"},{"arrival":"23:06:30","id":"A03N","lat":"40.865491","lon":"-73.927271","name":"Dyckman St"},{"arrival":"23:06:30","id":"R21N","lat":"40.730328","lon":"-73.992629","name":"8 St - NYU"},{"arrival":"23:06:00","id":"418S","lat":"40.710368","lon":"-74.009509","name":"Fulton St"},{"arrival":"23:06:30","id":"418S","lat":"40.710368","lon":"-74.009509","name":"Fulton St"},{"arrival":"23:06:30","id":"F25S","lat":"40.660365","lon":"-73.979493","name":"15 St - Prospect Park"},{"arrival":"23:06:30","id":"N07S","lat":"40.611815","lon":"-73.981848","name":"Bay Pkwy"},{"arrival":"23:06:00","id":"640N","lat":"40.713065","lon":"-74.004131","name":"Brooklyn Bridge - City Hall"},{"arrival":"23:06:30","id":"120N","lat":"40.793919","lon":"-73.972323","name":"96 St"},{"arrival":"23:06:00","id":"R11N","lat":"40.76266","lon":"-73.967258","name":"Lexington Av/59 St"},{"arrival":"23:06:00","id":"R06S","lat":"40.756804","lon":"-73.929575","name":"36 Av"},{"arrival":"23:06:00","id":"120S","lat":"40.793919","lon":"-73.972323","name":"96 St"},{"arrival":"23:06:00","id":"120S","lat":"40.793919","lon":"-73.972323","name":"96 St"},{"arrival":"23:06:30","id":"D26S","lat":"40.661614","lon":"-73.962246","name":"Prospect Park"},{"arrival":"23:06:30","id":"D26S","lat":"40.661614","lon":"-73.962246","name":"Prospect Park"},{"arrival":"23:06:30","id":"D26S","lat":"40.661614","lon":"-73.962246","name":"Prospect Park"},{"arrival":"23:06:00","id":"N02N","lat":"40.635064","lon":"-74.011719","name":"8 Av"},{"arrival":"23:06:00","id":"224N","lat":"40.814229","lon":"-73.94077","name":"135 St"},{"arrival":"23:06:00","id":"224N","lat":"40.814229","lon":"-73.94077","name":"135 St"},{"arrival":"23:06:00","id":"D13S","lat":"40.824783","lon":"-73.944216","name":"145 St"},{"arrival":"23:06:00","id":"G06S","lat":"40.700486","lon":"-73.807969","name":"Sutphin Blvd - Archer Av - JFK Airport"},{"arrival":"23:06:30","id":"D31N","lat":"40.635082","lon":"-73.962793","name":"Newkirk Av"},{"arrival":"23:06:00","id":"224S","lat":"40.814229","lon":"-73.94077","name":"135 St"},{"arrival":"23:06:30","id":"224S","lat":"40.814229","lon":"-73.94077","name":"135 St"},{"arrival":"23:06:00","id":"D14S","lat":"40.762862","lon":"-73.981637","name":"7 Av"},{"arrival":"23:06:00","id":"D14S","lat":"40.762862","lon":"-73.981637","name":"7 Av"},{"arrival":"23:06:30","id":"412S","lat":"40.840075","lon":"-73.917791","name":"170 St"},{"arrival":"23:06:00","id":"R18S","lat":"40.745494","lon":"-73.988691","name":"28 St"},{"arrival":"23:06:00","id":"F27N","lat":"40.644041","lon":"-73.979678","name":"Church Av"},{"arrival":"23:06:00","id":"R18N","lat":"40.745494","lon":"-73.988691","name":"28 St"},{"arrival":"23:06:00","id":"L27N","lat":"40.658733","lon":"-73.899232","name":"New Lots Av"},{"arrival":"23:06:00","id":"L27N","lat":"40.658733","lon":"-73.899232","name":"New Lots Av"},{"arrival":"23:06:00","id":"L27N","lat":"40.658733","lon":"-73.899232","name":"New Lots Av"},{"arrival":"23:06:30","id":"615S","lat":"40.812118","lon":"-73.904098","name":"E 149 St"},{"arrival":"23:06:00","id":"F29N","lat":"40.636119","lon":"-73.978172","name":"Ditmas Av"},{"arrival":"23:06:00","id":"F11N","lat":"40.757552","lon":"-73.969055","name":"Lexington Av/53 St"},{"arrival":"23:06:30","id":"R36N","lat":"40.655144","lon":"-74.003549","name":"36 St"},{"arrival":"23:06:00","id":"A50S","lat":"40.67834","lon":"-73.911946","name":"Rockaway Av"},{"arrival":"23:06:00","id":"A12N","lat":"40.824783","lon":"-73.944216","name":"145 St"},{"arrival":"23:06:00","id":"415N","lat":"40.818375","lon":"-73.927351","name":"149 St - Grand Concourse"},{"arrival":"23:06:30","id":"602N","lat":"40.84681","lon":"-73.832569","name":"Buhre Av"},{"arrival":"23:06:30","id":"F20N","lat":"40.686145","lon":"-73.990862","name":"Bergen St"},{"arrival":"23:06:30","id":"D19S","lat":"40.738228","lon":"-73.996209","name":"14 St"},{"arrival":"23:06:00","id":"F18N","lat":"40.701397","lon":"-73.986751","name":"York St"},{"arrival":"23:06:30","id":"115N","lat":"40.822008","lon":"-73.953676","name":"137 St - City College"},{"arrival":"23:06:30","id":"214N","lat":"40.840295","lon":"-73.880049","name":"West Farms Sq - E Tremont Av"},{"arrival":"23:06:30","id":"709N","lat":"40.747659","lon":"-73.883697","name":"82 St - Jackson Hts"},{"arrival":"23:06:30","id":"D04S","lat":"40.866978","lon":"-73.893509","name":"Kingsbridge Rd"},{"arrival":"23:06:30","id":"709S","lat":"40.747659","lon":"-73.883697","name":"82 St - Jackson Hts"},{"arrival":"23:06:00","id":"115S","lat":"40.822008","lon":"-73.953676","name":"137 St - City College"},{"arrival":"23:06:00","id":"B21S","lat":"40.601875","lon":"-73.993728","name":"Bay Pkwy"},{"arrival":"23:06:30","id":"244S","lat":"40.650843","lon":"-73.949575","name":"Church Av"},{"arrival":"23:06:30","id":"252S","lat":"40.661453","lon":"-73.916327","name":"Saratoga Av"},{"arrival":"23:06:30","id":"252S","lat":"40.661453","lon":"-73.916327","name":"Saratoga Av"},{"arrival":"23:06:00","id":"A30N","lat":"40.745906","lon":"-73.998041","name":"23 St"},{"arrival":"23:06:00","id":"S31S","lat":"40.643748","lon":"-74.073643","name":"St George"},{"arrival":"23:06:00","id":"S31S","lat":"40.643748","lon":"-74.073643","name":"St George"},{"arrival":"23:06:00","id":"S31S","lat":"40.643748","lon":"-74.073643","name":"St George"},{"arrival":"23:06:30","id":"J27N","lat":"40.679498","lon":"-73.904512","name":"Broadway Jct"},{"arrival":"23:06:00","id":"301N","lat":"40.82388","lon":"-73.93647","name":"Harlem - 148 St"},{"arrival":"23:06:00","id":"F38S","lat":"40.58962","lon":"-73.97425","name":"Avenue X"},{"arrival":"23:06:30","id":"R33N","lat":"40.670847","lon":"-73.988302","name":"9 St"},{"arrival":"23:06:00","id":"F24N","lat":"40.666271","lon":"-73.980305","name":"7 Av"},{"arrival":"23:06:00","id":"R33S","lat":"40.670847","lon":"-73.988302","name":"9 St"},{"arrival":"23:06:00","id":"A42S","lat":"40.688484","lon":"-73.985001","name":"Hoyt - Schermerhorn Sts"},{"arrival":"23:06:30","id":"A20N","lat":"40.785868","lon":"-73.968916","name":"86 St"},{"arrival":"23:06:00","id":"724N","lat":"40.753821","lon":"-73.981963","name":"5 Av"},{"arrival":"23:06:00","id":"A61N","lat":"40.680429","lon":"-73.843853","name":"Rockaway Blvd"},{"arrival":"23:06:30","id":"611N","lat":"40.828584","lon":"-73.879159","name":"Elder Av"},{"arrival":"23:06:00","id":"712S","lat":"40.74563","lon":"-73.902984","name":"Woodside - 61 St"},{"arrival":"23:06:30","id":"A41S","lat":"40.692338","lon":"-73.987342","name":"Jay St - MetroTech"},{"arrival":"23:06:30","id":"A41S","lat":"40.692338","lon":"-73.987342","name":"Jay St - MetroTech"},{"arrival":"23:06:00","id":"A41S","lat":"40.692338","lon":"-73.987342","name":"Jay St - MetroTech"},{"arrival":"23:06:30","id":"R20S","lat":"40.735736","lon":"-73.990568","name":"14 St - Union Sq"},{"arrival":"23:06:30","id":"R20S","lat":"40.735736","lon":"-73.990568","name":"14 St - Union Sq"},{"arrival":"23:06:30","id":"G16N","lat":"40.752885","lon":"-73.906006","name":"Northern Blvd"},{"arrival":"23:06:30","id":"R20N","lat":"40.735736","lon":"-73.990568","name":"14 St - Union Sq"},{"arrival":"23:06:00","id":"211N","lat":"40.857192","lon":"-73.867615","name":"Pelham Pkwy"},{"arrival":"23:06:00","id":"637S","lat":"40.725915","lon":"-73.994659","name":"Bleecker St"},{"arrival":"23:06:00","id":"723N","lat":"40.751431","lon":"-73.976041","name":"Grand Central - 42 St"},{"arrival":"23:06:30","id":"B10S","lat":"40.763972","lon":"-73.97745","name":"57 St"},{"arrival":"23:06:00","id":"705S","lat":"40.75173","lon":"-73.855334","name":"111 St"},{"arrival":"23:06:00","id":"D43S","lat":"40.577422","lon":"-73.981233","name":"Coney Island - Stillwell Av"},{"arrival":"23:06:00","id":"D43S","lat":"40.577422","lon":"-73.981233","name":"Coney Island - Stillwell Av"},{"arrival":"23:06:00","id":"D43S","lat":"40.577422","lon":"-73.981233","name":"Coney Island - Stillwell Av"},{"arrival":"23:06:00","id":"D43N","lat":"40.577422","lon":"-73.981233","name":"Coney Island - Stillwell Av"}]}