{"result":[{"arrival":"22:45:30","id":"R19S","lat":"40.741303","lon":"-73.989344","name":"23 St"},{"arrival":"22:45:30","id":"A18N","lat":"40.796092","lon":"-73.961454","name":"103 St"},{"arrival":"22:45:30","id":"A18N","lat":"40.796092","lon":"-73.961454","name":"103 St"},{"arrival":"22:45:30","id":"R19N","lat":"40.741303","lon":"-73.989344","name":"23 St"},{"arrival":"22:45:30","id":"L22S","lat":"40.678856","lon":"-73.90324","name":"Broadway Jct"},{"arrival":"22:45:00","id":"R05N","lat":"40.76182","lon":"-73.925508","name":"Broadway"},{"arrival":"22:45:00","id":"132N","lat":"40.737826","lon":"-74.000201","name":"14 St"},{"arrival":"22:45:30","id":"A47N","lat":"40.679921","lon":"-73.940858","name":"Kingston - Throop Avs"},{"arrival":"22:45:30","id":"711N","lat":"40.746325","lon":"-73.896403","name":"69 St"},{"arrival":"22:45:00","id":"711N","lat":"40.746325","lon":"-73.896403","name":"69 St"},{"arrival":"22:45:30","id":"128S","lat":"40.750373","lon":"-73.991057","name":"34 St - Penn Station"},{"arrival":"22:45:30","id":"128S","lat":"40.750373","lon":"-73.991057","name":"34 St - Penn Station"},{"arrival":"22:45:00","id":"711S","lat":"40.746325","lon":"-73.896403","name":"69 St"},{"arrival":"22:45:00","id":"R06N","lat":"40.756804","lon":"-73.929575","name":"36 Av"},{"arrival":"22:45:30","id":"F23N","lat":"40.670272","lon":"-73.989779","name":"4 Av"},{"arrival":"22:45:30","id":"720S","lat":"40.742216","lon":"-73.948916","name":"Hunters Point Av"},{"arrival":"22:45:00","id":"A59N","lat":"40.679371","lon":"-73.858992","name":"80 St"},{"arrival":"22:45:00","id":"A59N","lat":"40.679371","lon":"-73.858992","name":"80 St"},{"arrival":"22:45:00","id":"601N","lat":"40.852462","lon":"-73.828121","name":"Pelham Bay Park"},{"arrival":"22:45:00","id":"201N","lat":"40.903125","lon":"-73.85062","name":"Wakefield - 241 St"},{"arrival":"22:45:00","id":"201N","lat":"40.903125","lon":"-73.85062","name":"Wakefield - 241 St"},{"arrival":"22:45:30","id":"215S","lat":"40.837288","lon":"-73.887734","name":"174 St"},{"arrival":"22:45:00","id":"633S","lat":"40.74307","lon":"-73.984264","name":"28 St"},{"arrival":"22:45:00","id":"F04N","lat":"40.70546","lon":"-73.810708","name":"Sutphin Blvd"},{"arrival":"22:45:00","id":"215N","lat":"40.837288","lon":"-73.887734","name":"174 St"},{"arrival":"22:45:00","id":"706S","lat":"40.749865","lon":"-73.8627","name":"103 St - Corona Plaza"},{"arrival":"22:45:00","id":"D21S","lat":"40.725297","lon":"-73.996204","name":"Broadway-Lafayette St"},{"arrival":"22:45:30","id":"D21S","lat":"40.725297","lon":"-73.996204","name":"Broadway-Lafayette St"},{"arrival":"22:45:00","id":"D21S","lat":"40.725297","lon":"-73.996204","name":"Broadway-Lafayette St"},{"arrival":"22:45:00","id":"D28N","lat":"40.650527","lon":"-73.962982","name":"Church Av"},{"arrival":"22:45:00","id":"F07N","lat":"40.718331","lon":"-73.837324","name":"75 Av"},{"arrival":"22:45:00","id":"F07N","lat":"40.718331","lon":"-73.837324","name":"75 Av"},{"arrival":"22:45:30","id":"233N","lat":"40.690545","lon":"-73.985065","name":"Hoyt St"},{"arrival":"22:45:00","id":"M19N","lat":"40.72028","lon":"-73.993915","name":"Bowery"},{"arrival":"22:45:30","id":"R40N","lat":"40.645069","lon":"-74.014034","name":"53 St"},{"arrival":"22:45:00","id":"R40N","lat":"40.645069","lon":"-74.014034","name":"53 St"},{"arrival":"22:45:30","id":"R40N","lat":"40.645069","lon":"-74.014034","name":"53 St"},{"arrival":"22:45:00","id":"Q01S","lat":"40.718383","lon":"-74.00046","name":"Canal St"},{"arrival":"22:45:30","id":"Q01S","lat":"40.718383","lon":"-74.00046","name":"Canal St"},{"arrival":"22:45:00","id":"Q01S","lat":"40.718383","lon":"-74.00046","name":"Canal St"},{"arrival":"22:45:00","id":"233S","lat":"40.690545","lon":"-73.985065","name":"Hoyt St"},{"arrival":"22:45:30","id":"R40S","lat":"40.645069","lon":"-74.014034","name":"53 St"},{"arrival":"22:45:00","id":"R30S","lat":"40.690635","lon":"-73.981824","name":"DeKalb Av"},{"arrival":"22:45:00","id":"J16S","lat":"40.692435","lon":"-73.86001","name":"85 St - Forest Pkwy"},{"arrival":"22:45:00","id":"M04N","lat":"40.706186","lon":"-73.895877","name":"Fresh Pond Rd"},{"arrival":"22:45:00","id":"628S","lat":"40.768141","lon":"-73.96387","name":"68 St - Hunter College"},{"arrival":"22:45:00","id":"A38N","lat":"40.710197","lon":"-74.007691","name":"Fulton St"},{"arrival":"22:45:00","id":"725S","lat":"40.755477","lon":"-73.987691","name":"Times Sq - 42 St"},{"arrival":"22:45:00","id":"Q01N","lat":"40.718383","lon":"-74.00046","name":"Canal St"},{"arrival":"22:45:30","id":"Q01N","lat":"40.718383","lon":"-74.00046","name":"Canal St"},{"arrival":"22:45:00","id":"715S","lat":"40.743781","lon":"-73.924016","name":"40 St"},{"arrival":"22:45:30","id":"612N","lat":"40.826525","lon":"-73.886283","name":"Whitlock Av"},{"arrival":"22:45:00","id":"G19S","lat":"40.756879","lon":"-73.92074","name":"Steinway St"},{"arrival":"22:45:30","id":"A15S","lat":"40.811109","lon":"-73.952343","name":"125 St"},{"arrival":"22:45:00","id":"D16N","lat":"40.754222","lon":"-73.984569","name":"42 St - Bryant Pk"},{"arrival":"22:45:00","id":"D16N","lat":"40.754222","lon":"-73.984569","name":"42 St - Bryant Pk"},{"arrival":"22:45:30","id":"A48S","lat":"40.679364","lon":"-73.930729","name":"Utica Av"},{"arrival":"22:45:30","id":"634N","lat":"40.739864","lon":"-73.986599","name":"23 St"},{"arrival":"22:45:00","id":"A65N","lat":"40.685951","lon":"-73.825798","name":"Ozone Park - Lefferts Blvd"},{"arrival":"22:45:30","id":"107S","lat":"40.869444","lon":"-73.915279","name":"215 St"},{"arrival":"22:45:30","id":"107S","lat":"40.869444","lon":"-73.915279","name":"215 St"},{"arrival":"22:45:00","id":"F30N","lat":"40.629755","lon":"-73.976971","name":"18 Av"},{"arrival":"22:45:00","id":"D32S","lat":"40.62927","lon":"-73.961639","name":"Avenue H"},{"arrival":"22:45:00","id":"F30S","lat":"40.629755","lon":"-73.976971","name":"18 Av"},{"arrival":"22:45:30","id":"B18S","lat":"40.613501","lon":"-74.00061","name":"79 St"},{"arrival":"22:45:30","id":"702S","lat":"40.754622","lon":"-73.845625","name":"Mets - Willets Point"},{"arrival":"22:45:30","id":"219S","lat":"40.819585","lon":"-73.90177","name":"Prospect Av"},{"arrival":"22:45:00","id":"205N","lat":"40.893193","lon":"-73.857473","name":"233 St"},{"arrival":"22:45:00","id":"F39N","lat":"40.581011","lon":"-73.974574","name":"Neptune Av"},{"arrival":"22:45:00","id":"702N","lat":"40.754622","lon":"-73.845625","name":"Mets - Willets Point"},{"arrival":"22:45:30","id":"702N","lat":"40.754622","lon":"-73.845625","name":"Mets - Willets Point"},{"arrival":"22:45:30","id":"121N","lat":"40.788644","lon":"-73.976218","name":"86 St"},{"arrival":"22:45:00","id":"135N","lat":"40.722854","lon":"-74.006277","name":"Canal St"},{"arrival":"22:45:30","id":"D25S","lat":"40.67705","lon":"-73.972367","name":"7 Av"},{"arrival":"22:45:30","id":"A09N","lat":"40.840719","lon":"-73.939561","name":"168 St"},{"arrival":"22:45:00","id":"A09N","lat":"40.840719","lon":"-73.939561","name":"168 St"},{"arrival":"22:45:00","id":"A09N","lat":"40.840719","lon":"-73.939561","name":"168 St"},{"arrival":"22:45:00","id":"A21S","lat":"40.781433","lon":"-73.972143","name":"81 St - Museum of Natural History"},{"arrival":"22:45:30","id":"J30S","lat":"40.68963","lon":"-73.92227","name":"Gates Av"},{"arrival":"22:45:30","id":"J30S","lat":"40.68963","lon":"-73.92227","name":"Gates Av"},{"arrival":"22:45:00","id":"237S","lat":"40.675235","lon":"-73.971046","name":"Grand Army Plaza"},{"arrival":"22:45:00","id":"237S","lat":"40.675235","lon":"-73.971046","name":"Grand Army Plaza"},{"arrival":"22:45:30","id":"A27S","lat":"40.757308","lon":"-73.989735","name":"42 St - Port Authority Bus Terminal"},{"arrival":"22:45:30","id":"A27S","lat":"40.757308","lon":"-73.989735","name":"42 St - Port Authority Bus Terminal"},{"arrival":"22:45:30","id":"L19N","lat":"40.695602","lon":"-73.904084","name":"Halsey St"},{"arrival":"22:45:30","id":"L19N","lat":"40.695602","lon":"-73.904084","name":"Halsey St"},{"arrival":"22:45:30","id":"L19N","lat":"40.695602","lon":"-73.904084","name":"Halsey St"},{"arrival":"22:45:00","id":"609N","lat":"40.831509","lon":"-73.867618","name":"St Lawrence Av"},{"arrival":"22:45:00","id":"112S","lat":"40.840556","lon":"-73.940133","name":"168 St - Washington Hts"},{"arrival":"22:45:00","id":"M16S","lat":"40.708359","lon":"-73.957757","name":"Marcy Av"},{"arrival":"22:45:30","id":"112N","lat":"40.840556","lon":"-73.940133","name":"168 St - Washington Hts"},{"arrival":"22:45:00","id":"112N","lat":"40.840556","lon":"-73.940133","name":"168 St - Washington Hts"},{"arrival":"22:45:30","id":"R15S","lat":"40.759901","lon":"-73.984139","name":"49 St"},{"arrival":"22:45:30","id":"104N","lat":"40.878856","lon":"-73.904834","name":"231 St"},{"arrival":"22:45:00","id":"F14N","lat":"40.723402","lon":"-73.989938","name":"2 Av"},{"arrival":"22:45:00","id":"R22S","lat":"40.724329","lon":"-73.997702","name":"Prince St"},{"arrival":"22:45:30","id":"B15N","lat":"40.631435","lon":"-73.995476","name":"55 St"},{"arrival":"22:45:00","id":"G09S","lat":"40.726523","lon":"-73.852719","name":"67 Av"},{"arrival":"22:45:00","id":"D01N","lat":"40.874811","lon":"-73.878855","name":"Norwood - 205 St"},{"arrival":"22:45:30","id":"D01N","lat":"40.874811","lon":"-73.878855","name":"Norwood - 205 St"},{"arrival":"22:45:30","id":"B23S","lat":"40.588841","lon":"-73.983765","name":"Bay 50 St"},{"arrival":"22:45:30","id":"707N","lat":"40.749145","lon":"-73.869527","name":"Junction Blvd"},{"arrival":"22:45:00","id":"L10S","lat":"40.714063","lon":"-73.950275","name":"Lorimer St"},{"arrival":"22:45:00","id":"L10S","lat":"40.714063","lon":"-73.950275","name":"Lorimer St"},{"arrival":"22:45:00","id":"L10S","lat":"40.714063","lon":"-73.950275","name":"Lorimer St"},{"arrival":"22:45:00","id":"630N","lat":"40.757107","lon":"-73.97192","name":"51 St"},{"arrival":"22:45:30","id":"D06S","lat":"40.856093","lon":"-73.900741","name":"182-183 Sts"},{"arrival":"22:45:30","id":"A15N","lat":"40.811109","lon":"-73.952343","name":"125 St"},{"arrival":"22:45:30","id":"122N","lat":"40.783934","lon":"-73.979917","name":"79 St"},{"arrival":"22:45:30","id":"122N","lat":"40.783934","lon":"-73.979917","name":"79 St"},{"arrival":"22:45:30","id":"A05S","lat":"40.859022","lon":"-73.93418","name":"190 St"},{"arrival":"22:45:30","id":"A05S","lat":"40.859022","lon":"-73.93418","name":"190 St"},{"arrival":"22:45:00","id":"R15N","lat":"40.759901","lon":"-73.984139","name":"49 St"},{"arrival":"22:45:00","id":"122S","lat":"40.783934","lon":"-73.979917","name":"79 St"},{"arrival":"22:45:00","id":"122S","lat":"40.783934","lon":"-73.979917","name":"79 St"},{"arrival":"22:45:30","id":"D20S","lat":"40.732338","lon":"-74.000495","name":"W 4 St"},{"arrival":"22:45:30","id":"G08S","lat":"40.721691","lon":"-73.844521","name":"Forest Hills - 71 Av"},{"arrival":"22:45:30","id":"G08S","lat":"40.721691","lon":"-73.844521","name":"Forest Hills - 71 Av"},{"arrival":"22:45:30","id":"G08S","lat":"40.721691","lon":"-73.844521","name":"Forest Hills - 71 Av"},{"arrival":"22:45:00","id":"230S","lat":"40.706821","lon":"-74.0091","name":"Wall St"},{"arrival":"22:45:00","id":"L03N","lat":"40.734789","lon":"-73.99073","name":"Union Sq - 14 St"},{"arrival":"22:45:00","id":"L03N","lat":"40.734789","lon":"-73.99073","name":"Union Sq - 14 St"},{"arrival":"22:45:00","id":"L03N","lat":"40.734789","lon":"-73.99073","name":"Union Sq - 14 St"},{"arrival":"22:45:30","id":"M18N","lat":"40.718315","lon":"-73.987437","name":"Essex St"},{"arrival":"22:45:30","id":"M18N","lat":"40.718315","lon":"-73.987437","name":"Essex St"},{"arrival":"22:45:30","id":"M18N","lat":"40.718315","lon":"-73.987437","name":"Essex St"},{"arrival":"22:45:30","id":"L03S","lat":"40.734789","lon":"-73.99073","name":"Union Sq - 14 St"},{"arrival":"22:45:30","id":"L03S","lat":"40.734789","lon":"-73.99073","name":"Union Sq - 14 St"},{"arrival":"22:45:30","id":"L03S","lat":"40.734789","lon":"-73.99073","name":"Union Sq - 14 St"},{"arrival":"22:45:30","id":"230N","lat":"40.706821","lon":"-74.0091","name":"Wall St"},{"arrival":"22:45:00","id":"140S","lat":"40.701411","lon":"-74.013205","name":"South Ferry Loop"},{"arrival":"22:45:30","id":"109N","lat":"40.860531","lon":"-73.925536","name":"Dyckman St"},{"arrival":"22:45:00","id":"N05N","lat":"40.620671","lon":"-73.990414","name":"18 Av"},{"arrival":"22:45:30","id":"131S","lat":"40.74104","lon":"-73.997871","name":"18 St"},{"arrival":"22:45:30","id":"A61S","lat":"40.680429","lon":"-73.843853","name":"Rockaway Blvd"},{"arrival":"22:45:00","id":"A61S","lat":"40.680429","lon":"-73.843853","name":"Rockaway Blvd"},{"arrival":"22:45:00","id":"A33S","lat":"40.726227","lon":"-74.003739","name":"Spring St"},{"arrival":"22:45:30","id":"G09N","lat":"40.726523","lon":"-73.852719","name":"67 Av"},{"arrival":"22:45:00","id":"623S","lat":"40.79502","lon":"-73.94425","name":"110 St"},{"arrival":"22:45:30","id":"G22S","lat":"40.746554","lon":"-73.943832","name":"Court Sq"},{"arrival":"22:45:00","id":"G22S","lat":"40.746554","lon":"-73.943832","name":"Court Sq"},{"arrival":"22:45:00","id":"M12N","lat":"40.70026","lon":"-73.941126","name":"Flushing Av"},{"arrival":"22:45:30","id":"G18S","lat":"40.756312","lon":"-73.913333","name":"46 St"},{"arrival":"22:45:30","id":"G18S","lat":"40.756312","lon":"-73.913333","name":"46 St"},{"arrival":"22:45:00","id":"A14S","lat":"40.817894","lon":"-73.947649","name":"135 St"},{"arrival":"22:45:00","id":"A14S","lat":"40.817894","lon":"-73.947649","name":"135 St"},{"arrival":"22:45:00","id":"A14S","lat":"40.817894","lon":"-73.947649","name":"135 St"},{"arrival":"22:45:30","id":"708S","lat":"40.748408","lon":"-73.876613","name":"90 St - Elmhurst Av"},{"arrival":"22:45:00","id":"G13N","lat":"40.742454","lon":"-73.882017","name":"Elmhurst Av"},{"arrival":"22:45:00","id":"F34N","lat":"40.608944","lon":"-73.973022","name":"Avenue P"},{"arrival":"22:45:00","id":"R30N","lat":"40.690635","lon":"-73.981824","name":"DeKalb Av"},{"arrival":"22:45:00","id":"R30N","lat":"40.690635","lon":"-73.981824","name":"DeKalb Av"},{"arrival":"22:45:00","id":"G29S","lat":"40.712792","lon":"-73.951418","name":"Metropolitan Av"},{"arrival":"22:45:30","id":"H09S","lat":"40.595398","lon":"-73.768175","name":"Beach 36 St"},{"arrival":"22:45:30","id":"420S","lat":"40.704817","lon":"-74.014065","name":"Bowling Green"},{"arrival":"22:45:00","id":"F06N","lat":"40.714441","lon":"-73.831008","name":"Kew Gardens - Union Tpke"},{"arrival":"22:45:00","id":"R13N","lat":"40.764811","lon":"-73.973347","name":"5 Av/59 St"},{"arrival":"22:45:30","id":"126N","lat":"40.761728","lon":"-73.983849","name":"50 St"},{"arrival":"22:45:00","id":"A59S","lat":"40.679371","lon":"-73.858992","name":"80 St"},{"arrival":"22:45:00","id":"226S","lat":"40.802098","lon":"-73.949625","name":"116 St"},{"arrival":"22:45:00","id":"226S","lat":"40.802098","lon":"-73.949625","name":"116 St"},{"arrival":"22:45:30","id":"226S","lat":"40.802098","lon":"-73.949625","name":"116 St"},{"arrival":"22:45:30","id":"A24N","lat":"40.768296","lon":"-73.981736","name":"59 St - Columbus Circle"},{"arrival":"22:45:30","id":"A24S","lat":"40.768296","lon":"-73.981736","name":"59 St - Columbus Circle"},{"arrival":"22:45:00","id":"J17S","lat":"40.691324","lon":"-73.867139","name":"75 St"},{"arrival":"22:45:00","id":"J17S","lat":"40.691324","lon":"-73.867139","name":"75 St"},{"arrival":"22:45:00","id":"718N","lat":"40.750582","lon":"-73.940202","name":"Queensboro Plaza"},{"arrival":"22:45:00","id":"226N","lat":"40.802098","lon":"-73.949625","name":"116 St"},{"arrival":"22:45:00","id":"226N","lat":"40.802098","lon":"-73.949625","name":"116 St"},{"arrival":"22:45:00","id":"F09S","lat":"40.747846","lon":"-73.946","name":"Court Sq"},{"arrival":"22:45:00","id":"D12S","lat":"40.830135","lon":"-73.938209","name":"155 St"},{"arrival":"22:45:00","id":"D12S","lat":"40.830135","lon":"-73.938209","name":"155 St"},{"arrival":"22:45:00","id":"410S","lat":"40.84848","lon":"-73.911794","name":"176 St"},{"arrival":"22:45:00","id":"410N","lat":"40.84848","lon":"-73.911794","name":"176 St"},{"arrival":"22:45:30","id":"R04N","lat":"40.766779","lon":"-73.921479","name":"30 Av"},{"arrival":"22:45:00","id":"627S","lat":"40.77362","lon":"-73.959874","name":"77 St"},{"arrival":"22:45:00","id":"A40N","lat":"40.699337","lon":"-73.990531","name":"High St"},{"arrival":"22:45:30","id":"246S","lat":"40.639967","lon":"-73.948411","name":"Newkirk Av"},{"arrival":"22:45:30","id":"710N","lat":"40.746848","lon":"-73.891394","name":"74 St - Broadway"},{"arrival":"22:45:00","id":"607S","lat":"40.834255","lon":"-73.851222","name":"Castle Hill Av"},{"arrival":"22:45:30","id":"617S","lat":"40.805368","lon":"-73.914042","name":"Cypress Av"},{"arrival":"22:45:30","id":"B16N","lat":"40.626472","lon":"-73.996895","name":"62 St"},{"arrival":"22:45:30","id":"B16S","lat":"40.626472","lon":"-73.996895","name":"62 St"},{"arrival":"22:45:30","id":"208S","lat":"40.87785","lon":"-73.866256","name":"Gun Hill Rd"},{"arrival":"22:45:30","id":"D40S","lat":"40.577621","lon":"-73.961376","name":"Brighton Beach"},{"arrival":"22:45:00","id":"217S","lat":"40.824073","lon":"-73.893064","name":"Simpson St"},{"arrival":"22:45:00","id":"631S","lat":"40.751776","lon":"-73.976848","name":"Grand Central - 42 St"},{"arrival":"22:45:00","id":"D39N","lat":"40.586896","lon":"-73.954155","name":"Sheepshead Bay"},{"arrival":"22:45:00","id":"D39N","lat":"40.586896","lon":"-73.954155","name":"Sheepshead Bay"},{"arrival":"22:45:00","id":"R45S","lat":"40.616622","lon":"-74.030876","name":"Bay Ridge - 95 St"},{"arrival":"22:45:00","id":"631N","lat":"40.751776","lon":"-73.976848","name":"Grand Central - 42 St"},{"arrival":"22:45:00","id":"207S","lat":"40.883895","lon":"-73.862633","name":"219 St"},{"arrival":"22:45:00","id":"D15S","lat":"40.758663","lon":"-73.981329","name":"47-50 Sts - Rockefeller Ctr"},{"arrival":"22:45:00","id":"222N","lat":"40.81841","lon":"-73.926718","name":"149 St - Grand Concourse"},{"arrival":"22:45:00","id":"222N","lat":"40.81841","lon":"-73.926718","name":"149 St - Grand Concourse"},{"arrival":"22:45:00","id":"D37N","lat":"40.5993","lon":"-73.955929","name":"Avenue U"},{"arrival":"22:45:30","id":"123S","lat":"40.778453","lon":"-73.98197","name":"72 St"},{"arrival":"22:45:30","id":"D39S","lat":"40.586896","lon":"-73.954155","name":"Sheepshead Bay"},{"arrival":"22:45:30","id":"G14S","lat":"40.746644","lon":"-73.891338","name":"Jackson Hts - Roosevelt Av"},{"arrival":"22:45:00","id":"R17S","lat":"40.749567","lon":"-73.98795","name":"34 St - Herald Sq"},{"arrival":"22:45:30","id":"130S","lat":"40.744081","lon":"-73.995657","name":"23 St"},{"arrival":"22:45:30","id":"130N","lat":"40.744081","lon":"-73.995657","name":"23 St"},{"arrival":"22:45:30","id":"242S","lat":"40.662742","lon":"-73.95085","name":"Sterling St"},{"arrival":"22:45:30","id":"R17N","lat":"40.749567","lon":"-73.98795","name":"34 St - Herald Sq"},{"arrival":"22:45:30","id":"R17N","lat":"40.749567","lon":"-73.98795","name":"34 St - Herald Sq"},{"arrival":"22:45:00","id":"R17N","lat":"40.749567","lon":"-73.98795","name":"34 St - Herald Sq"},{"arrival":"22:45:30","id":"249S","lat":"40.669399","lon":"-73.942161","name":"Kingston Av"},{"arrival":"22:45:30","id":"249S","lat":"40.669399","lon":"-73.942161","name":"Kingston Av"},{"arrival":"22:45:30","id":"A54S","lat":"40.67413","lon":"-73.88075","name":"Shepherd Av"},{"arrival":"22:45:30","id":"A54S","lat":"40.67413","lon":"-73.88075","name":"Shepherd Av"},{"arrival":"22:45:30","id":"A54S","lat":"40.67413","lon":"-73.88075","name":"Shepherd Av"},{"arrival":"22:45:30","id":"255S","lat":"40.664635","lon":"-73.894895","name":"Pennsylvania Av"},{"arrival":"22:45:30","id":"614N","lat":"40.816104","lon":"-73.896435","name":"Longwood Av"},{"arrival":"22:45:00","id":"A32N","lat":"40.732338","lon":"-74.000495","name":"W 4 St"},{"arrival":"22:45:30","id":"A32S","lat":"40.732338","lon":"-74.000495","name":"W 4 St"},{"arrival":"22:45:30","id":"A32S","lat":"40.732338","lon":"-74.000495","name":"W 4 St"},{"arrival":"22:45:30","id":"A32S","lat":"40.732338","lon":"-74.000495","name":"W 4 St"},{"arrival":"22:45:30","id":"A28N","lat":"40.752287","lon":"-73.993391","name":"34 St - Penn Station"},{"arrival":"22:45:00","id":"L19S","lat":"40.695602","lon":"-73.904084","name":"Halsey St"},{"arrival":"22:45:00","id":"L19S","lat":"40.695602","lon":"-73.904084","name":"Halsey St"},{"arrival":"22:45:00","id":"J19N","lat":"40.689941","lon":"-73.87255","name":"Cypress Hills"},{"arrival":"22:45:00","id":"J19N","lat":"40.689941","lon":"-73.87255","name":"Cypress Hills"},{"arrival":"22:45:00","id":"249N","lat":"40.669399","lon":"-73.942161","name":"Kingston Av"},{"arrival":"22:45:00","id":"249N","lat":"40.669399","lon":"-73.942161","name":"Kingston Av"},{"arrival":"22:45:30","id":"F05S","lat":"40.709179","lon":"-73.820574","name":"Briarwood - Van Wyck Blvd"},{"arrival":"22:45:30","id":"F05S","lat":"40.709179","lon":"-73.820574","name":"Briarwood - Van Wyck Blvd"},{"arrival":"22:45:00","id":"R31S","lat":"40.683666","lon":"-73.97881","name":"Atlantic Av - Barclays Ctr"},{"arrival":"22:45:00","id":"F26N","lat":"40.650782","lon":"-73.975776","name":"Fort Hamilton Pkwy"},{"arrival":"22:45:30","id":"F26N","lat":"40.650782","lon":"-73.975776","name":"Fort Hamilton Pkwy"},{"arrival":"22:45:00","id":"R31N","lat":"40.683666","lon":"-73.97881","name":"Atlantic Av - Barclays Ctr"},{"arrival":"22:45:30","id":"R31N","lat":"40.683666","lon":"-73.97881","name":"Atlantic Av - Barclays Ctr"},{"arrival":"22:45:30","id":"714S","lat":"40.743132","lon":"-73.918435","name":"46 St"},{"arrival":"22:45:30","id":"F21S","lat":"40.680303","lon":"-73.995048","name":"Carroll St"},{"arrival":"22:45:30","id":"F21S","lat":"40.680303","lon":"-73.995048","name":"Carroll St"},{"arrival":"22:45:30","id":"714N","lat":"40.743132","lon":"-73.918435","name":"46 St"},{"arrival":"22:45:30","id":"603S","lat":"40.843863","lon":"-73.836322","name":"Middletown Rd"},{"arrival":"22:45:00","id":"G05N","lat":"40.702147","lon":"-73.801109","name":"Jamaica Center - Parsons/Archer"},{"arrival":"22:45:00","id":"G05N","lat":"40.702147","lon":"-73.801109","name":"Jamaica Center - Parsons/Archer"},{"arrival":"22:45:00","id":"B04N","lat":"40.754203","lon":"-73.942836","name":"21 St - Queensbridge"},{"arrival":"22:45:00","id":"D34S","lat":"40.617618","lon":"-73.959399","name":"Avenue M"},{"arrival":"22:45:00","id":"D29N","lat":"40.644031","lon":"-73.964492","name":"Beverly Rd"},{"arrival":"22:45:30","id":"F22N","lat":"40.67358","lon":"-73.995959","name":"Smith - 9 Sts"},{"arrival":"22:45:00","id":"127S","lat":"40.75529","lon":"-73.987495","name":"Times Sq - 42 St"},{"arrival":"22:45:00","id":"127S","lat":"40.75529","lon":"-73.987495","name":"Times Sq - 42 St"},{"arrival":"22:45:30","id":"639S","lat":"40.718803","lon":"-74.000193","name":"Canal St"},{"arrival":"22:45:30","id":"A31N","lat":"40.740893","lon":"-74.00169","name":"14 St"},{"arrival":"22:45:00","id":"127N","lat":"40.75529","lon":"-73.987495","name":"Times Sq - 42 St"},{"arrival":"22:45:30","id":"127N","lat":"40.75529","lon":"-73.987495","name":"Times Sq - 42 St"},{"arrival":"22:45:00","id":"R14S","lat":"40.764664","lon":"-73.980658","name":"57 St - 7 Av"},{"arrival":"22:45:00","id":"D22N","lat":"40.718267","lon":"-73.993753","name":"Grand St"},{"arrival":"22:45:30","id":"621S","lat":"40.804138","lon":"-73.937594","name":"125 St"},{"arrival":"22:45:30","id":"118N","lat":"40.803967","lon":"-73.966847","name":"Cathedral Pkwy"},{"arrival":"22:45:00","id":"R32N","lat":"40.677316","lon":"-73.98311","name":"Union St"},{"arrival":"22:45:00","id":"405S","lat":"40.873412","lon":"-73.890064","name":"Bedford Park Blvd - Lehman College"},{"arrival":"22:45:30","id":"411N","lat":"40.844434","lon":"-73.914685","name":"Mt Eden Av"},{"arrival":"22:45:30","id":"411N","lat":"40.844434","lon":"-73.914685","name":"Mt Eden Av"},{"arrival":"22:45:30","id":"R32S","lat":"40.677316","lon":"-73.98311","name":"Union St"},{"arrival":"22:45:00","id":"R32S","lat":"40.677316","lon":"-73.98311","name":"Union St"},{"arrival":"22:45:30","id":"610N","lat":"40.829521","lon":"-73.874516","name":"Morrison Av- Sound View"},{"arrival":"22:45:00","id":"L24S","lat":"40.675345","lon":"-73.903097","name":"Atlantic Av"},{"arrival":"22:45:00","id":"A41N","lat":"40.692338","lon":"-73.987342","name":"Jay St - MetroTech"},{"arrival":"22:45:00","id":"A41N","lat":"40.692338","lon":"-73.987342","name":"Jay St - MetroTech"},{"arrival":"22:45:30","id":"626N","lat":"40.779492","lon":"-73.955589","name":"86 St"},{"arrival":"22:45:30","id":"626N","lat":"40.779492","lon":"-73.955589","name":"86 St"},{"arrival":"22:45:30","id":"A07N","lat":"40.847391","lon":"-73.939704","name":"175 St"},{"arrival":"22:45:00","id":"A07N","lat":"40.847391","lon":"-73.939704","name":"175 St"},{"arrival":"22:45:00","id":"F02S","lat":"40.71047","lon":"-73.793604","name":"169 St"},{"arrival":"22:45:30","id":"608S","lat":"40.833226","lon":"-73.860816","name":"Parkchester"},{"arrival":"22:45:00","id":"R21N","lat":"40.730328","lon":"-73.992629","name":"8 St - NYU"},{"arrival":"22:45:00","id":"636N","lat":"40.730054","lon":"-73.99107","name":"Astor Pl"},{"arrival":"22:45:00","id":"D26N","lat":"40.661614","lon":"-73.962246","name":"Prospect Park"},{"arrival":"22:45:30","id":"256N","lat":"40.665449","lon":"-73.889395","name":"Van Siclen Av"},{"arrival":"22:45:30","id":"256N","lat":"40.665449","lon":"-73.889395","name":"Van Siclen Av"},{"arrival":"22:45:00","id":"F35S","lat":"40.603217","lon":"-73.972361","name":"Kings Hwy"},{"arrival":"22:45:00","id":"F35S","lat":"40.603217","lon":"-73.972361","name":"Kings Hwy"},{"arrival":"22:45:30","id":"R11N","lat":"40.76266","lon":"-73.967258","name":"Lexington Av/59 St"},{"arrival":"22:45:30","id":"R06S","lat":"40.756804","lon":"-73.929575","name":"36 Av"},{"arrival":"22:45:30","id":"N02S","lat":"40.635064","lon":"-74.011719","name":"8 Av"},{"arrival":"22:45:30","id":"256S","lat":"40.665449","lon":"-73.889395","name":"Van Siclen Av"},{"arrival":"22:45:30","id":"B08N","lat":"40.764629","lon":"-73.966113","name":"Lexington Av/63 St"},{"arrival":"22:45:00","id":"N02N","lat":"40.635064","lon":"-74.011719","name":"8 Av"},{"arrival":"22:45:00","id":"236S","lat":"40.680829","lon":"-73.975098","name":"Bergen St"},{"arrival":"22:45:00","id":"224N","lat":"40.814229","lon":"-73.94077","name":"135 St"},{"arrival":"22:45:30","id":"D31S","lat":"40.635082","lon":"-73.962793","name":"Newkirk Av"},{"arrival":"22:45:00","id":"236N","lat":"40.680829","lon":"-73.975098","name":"Bergen St"},{"arrival":"22:45:30","id":"J29S","lat":"40.68637","lon":"-73.916559","name":"Halsey St"},{"arrival":"22:45:00","id":"A46N","lat":"40.680438","lon":"-73.950426","name":"Nostrand Av"},{"arrival":"22:45:30","id":"625N","lat":"40.785672","lon":"-73.95107","name":"96 St"},{"arrival":"22:45:00","id":"A46S","lat":"40.680438","lon":"-73.950426","name":"Nostrand Av"},{"arrival":"22:45:30","id":"401N","lat":"40.886037","lon":"-73.878751","name":"Woodlawn"},{"arrival":"22:45:00","id":"401N","lat":"40.886037","lon":"-73.878751","name":"Woodlawn"},{"arrival":"22:45:00","id":"401N","lat":"40.886037","lon":"-73.878751","name":"Woodlawn"},{"arrival":"22:45:00","id":"501S","lat":"40.8883","lon":"-73.830834","name":"Eastchester - Dyre Av"},{"arrival":"22:45:30","id":"R36N","lat":"40.655144","lon":"-74.003549","name":"36 St"},{"arrival":"22:45:00","id":"138N","lat":"40.711835","lon":"-74.012188","name":"Cortlandt St"},{"arrival":"22:45:00","id":"602N","lat":"40.84681","lon":"-73.832569","name":"Buhre Av"},{"arrival":"22:45:30","id":"138S","lat":"40.711835","lon":"-74.012188","name":"Cortlandt St"},{"arrival":"22:45:00","id":"138S","lat":"40.711835","lon":"-74.012188","name":"Cortlandt St"},{"arrival":"22:45:00","id":"F18S","lat":"40.701397","lon":"-73.986751","name":"York St"},{"arrival":"22:45:00","id":"F18S","lat":"40.701397","lon":"-73.986751","name":"York St"},{"arrival":"22:45:00","id":"S12S","lat":"40.517812","lon":"-74.238373","name":"Nassau"},{"arrival":"22:45:00","id":"S12S","lat":"40.517812","lon":"-74.238373","name":"Nassau"},{"arrival":"22:45:00","id":"S12S","lat":"40.517812","lon":"-74.238373","name":"Nassau"},{"arrival":"22:45:30","id":"D19N","lat":"40.738228","lon":"-73.996209","name":"14 St"},{"arrival":"22:45:30","id":"901S","lat":"40.752769","lon":"-73.979189","name":"Grand Central - 42 St"},{"arrival":"22:45:00","id":"901S","lat":"40.752769","lon":"-73.979189","name":"Grand Central - 42 St"},{"arrival":"22:45:30","id":"901S","lat":"40.752769","lon":"-73.979189","name":"Grand Central - 42 St"},{"arrival":"22:45:30","id":"115N","lat":"40.822008","lon":"-73.953676","name":"137 St - City College"},{"arrival":"22:45:30","id":"214N","lat":"40.840295","lon":"-73.880049","name":"West Farms Sq - E Tremont Av"},{"arrival":"22:45:30","id":"214N","lat":"40.840295","lon":"-73.880049","name":"West Farms Sq - E Tremont Av"},{"arrival":"22:45:30","id":"D04S","lat":"40.866978","lon":"-73.893509","name":"Kingsbridge Rd"},{"arrival":"22:45:00","id":"111N","lat":"40.849505","lon":"-73.933596","name":"181 St"},{"arrival":"22:45:00","id":"B21N","lat":"40.601875","lon":"-73.993728","name":"Bay Pkwy"},{"arrival":"22:45:00","id":"252S","lat":"40.661453","lon":"-73.916327","name":"Saratoga Av"},{"arrival":"22:45:30","id":"301S","lat":"40.82388","lon":"-73.93647","name":"Harlem - 148 St"},{"arrival":"22:45:00","id":"A30N","lat":"40.745906","lon":"-73.998041","name":"23 St"},{"arrival":"22:45:30","id":"A49N","lat":"40.678822","lon":"-73.920786","name":"Ralph Av"},{"arrival":"22:45:30","id":"618N","lat":"40.807566","lon":"-73.91924","name":"Brook Av"},{"arrival":"22:45:00","id":"J15N","lat":"40.693879","lon":"-73.851576","name":"Woodhaven Blvd"},{"arrival":"22:45:30","id":"618S","lat":"40.807566","lon":"-73.91924","name":"Brook Av"},{"arrival":"22:45:30","id":"F24S","lat":"40.666271","lon":"-73.980305","name":"7 Av"},{"arrival":"22:45:30","id":"724N","lat":"40.753821","lon":"-73.981963","name":"5 Av"},{"arrival":"22:45:00","id":"724N","lat":"40.753821","lon":"-73.981963","name":"5 Av"},{"arrival":"22:45:30","id":"N09S","lat":"40.597473","lon":"-73.979137","name":"Avenue U"},{"arrival":"22:45:00","id":"S01S","lat":"40.680596","lon":"-73.955827","name":"Franklin Av"},{"arrival":"22:45:00","id":"S01S","lat":"40.680596","lon":"-73.955827","name":"Franklin Av"},{"arrival":"22:45:00","id":"S01S","lat":"40.680596","lon":"-73.955827","name":"Franklin Av"},{"arrival":"22:45:00","id":"A41S","lat":"40.692338","lon":"-73.987342","name":"Jay St - MetroTech"},{"arrival":"22:45:30","id":"A42N","lat":"40.688484","lon":"-73.985001","name":"Hoyt - Schermerhorn Sts"},{"arrival":"22:45:00","id":"R20S","lat":"40.735736","lon":"-73.990568","name":"14 St - Union Sq"},{"arrival":"22:45:00","id":"R20S","lat":"40.735736","lon":"-73.990568","name":"14 St - Union Sq"},{"arrival":"22:45:00","id":"106N","lat":"40.874561","lon":"-73.909831","name":"Marble Hill - 225 St"},{"arrival":"22:45:00","id":"211N","lat":"40.857192","lon":"-73.867615","name":"Pelham Pkwy"},{"arrival":"22:45:00","id":"211N","lat":"40.857192","lon":"-73.867615","name":"Pelham Pkwy"},{"arrival":"22:45:00","id":"211S","lat":"40.857192","lon":"-73.867615","name":"Pelham Pkwy"},{"arrival":"22:45:00","id":"637S","lat":"40.725915","lon":"-73.994659","name":"Bleecker St"},{"arrival":"22:45:30","id":"419N","lat":"40.707557","lon":"-74.011862","name":"Wall St"},{"arrival":"22:45:00","id":"G11N","lat":"40.733106","lon":"-73.869229","name":"Woodhaven Blvd"},{"arrival":"22:45:30","id":"F33N","lat":"40.61514","lon":"-73.974197","name":"Avenue N"},{"arrival":"22:45:00","id":"A51S","lat":"40.678334","lon":"-73.905316","name":"Broadway Jct"},{"arrival":"22:45:30","id":"A51S","lat":"40.678334","lon":"-73.905316","name":"Broadway Jct"},{"arrival":"22:45:00","id":"D09N","lat":"40.839306","lon":"-73.9134","name":"170 St"},{"arrival":"22:45:30","id":"D43S","lat":"40.577422","lon":"-73.981233","name":"Coney Island - Stillwell Av"},{"arrival":"22:45:00","id":"D43S","lat":"40.577422","lon":"-73.981233","name":"Coney Island - Stillwell Av"},{"arrival":"22:45:30","id":"D43N","lat":"40.577422","lon":"-73.981233","name":"Coney Island - Stillwell Av"},{"arrival":"22:45:30","id":"218N","lat":"40.822181","lon":"-73.896736","name":"Intervale Av"},{"arrival":"22:45:30","id":"218N","lat":"40.822181","lon":"-73.896736","name":"Intervale Av"},{"arrival":"22:45:30","id":"G36N","lat":"40.687119","lon":"-73.975375","name":"Fulton St"}]}