{"result":[{"arrival":"22:13:00","id":"413S","lat":"40.835537","lon":"-73.9214","name":"167 St"},{"arrival":"22:13:00","id":"413S","lat":"40.835537","lon":"-73.9214","name":"167 St"},{"arrival":"22:13:00","id":"A18N","lat":"40.796092","lon":"-73.961454","name":"103 St"},{"arrival":"22:13:00","id":"R19N","lat":"40.741303","lon":"-73.989344","name":"23 St"},{"arrival":"22:13:30","id":"J12N","lat":"40.700492","lon":"-73.828294","name":"121 St"},{"arrival":"22:13:30","id":"L22S","lat":"40.678856","lon":"-73.90324","name":"Broadway Jct"},{"arrival":"22:13:00","id":"R05N","lat":"40.76182","lon":"-73.925508","name":"Broadway"},{"arrival":"22:13:00","id":"624S","lat":"40.7906","lon":"-73.947478","name":"103 St"},{"arrival":"22:13:30","id":"711N","lat":"40.746325","lon":"-73.896403","name":"69 St"},{"arrival":"22:13:30","id":"128S","lat":"40.750373","lon":"-73.991057","name":"34 St - Penn Station"},{"arrival":"22:13:30","id":"L26S","lat":"40.664038","lon":"-73.900571","name":"Livonia Av"},{"arrival":"22:13:00","id":"624N","lat":"40.7906","lon":"-73.947478","name":"103 St"},{"arrival":"22:13:30","id":"616S","lat":"40.808719","lon":"-73.907657","name":"E 143 St - St Mary's St"},{"arrival":"22:13:30","id":"H04S","lat":"40.608382","lon":"-73.815925","name":"Broad Channel"},{"arrival":"22:13:30","id":"G10S","lat":"40.729846","lon":"-73.861604","name":"63 Dr - Rego Park"},{"arrival":"22:13:30","id":"601S","lat":"40.852462","lon":"-73.828121","name":"Pelham Bay Park"},{"arrival":"22:13:30","id":"F07S","lat":"40.718331","lon":"-73.837324","name":"75 Av"},{"arrival":"22:13:00","id":"720N","lat":"40.742216","lon":"-73.948916","name":"Hunters Point Av"},{"arrival":"22:13:00","id":"103N","lat":"40.884667","lon":"-73.90087","name":"238 St"},{"arrival":"22:13:00","id":"G08N","lat":"40.721691","lon":"-73.844521","name":"Forest Hills - 71 Av"},{"arrival":"22:13:00","id":"G08N","lat":"40.721691","lon":"-73.844521","name":"Forest Hills - 71 Av"},{"arrival":"22:13:30","id":"720S","lat":"40.742216","lon":"-73.948916","name":"Hunters Point Av"},{"arrival":"22:13:30","id":"A59N","lat":"40.679371","lon":"-73.858992","name":"80 St"},{"arrival":"22:13:30","id":"A59N","lat":"40.679371","lon":"-73.858992","name":"80 St"},{"arrival":"22:13:30","id":"716N","lat":"40.744587","lon":"-73.930997","name":"33 St"},{"arrival":"22:13:00","id":"B20N","lat":"40.604556","lon":"-73.998168","name":"20 Av"},{"arrival":"22:13:00","id":"235S","lat":"40.684359","lon":"-73.977666","name":"Atlantic Av - Barclays Ctr"},{"arrival":"22:13:30","id":"A60S","lat":"40.679843","lon":"-73.85147","name":"88 St"},{"arrival":"22:13:30","id":"A60S","lat":"40.679843","lon":"-73.85147","name":"88 St"},{"arrival":"22:13:30","id":"902S","lat":"40.755983","lon":"-73.986229","name":"Times Sq - 42 St"},{"arrival":"22:13:00","id":"633S","lat":"40.74307","lon":"-73.984264","name":"28 St"},{"arrival":"22:13:30","id":"F04S","lat":"40.70546","lon":"-73.810708","name":"Sutphin Blvd"},{"arrival":"22:13:30","id":"633N","lat":"40.74307","lon":"-73.984264","name":"28 St"},{"arrival":"22:13:00","id":"G15N","lat":"40.749669","lon":"-73.898453","name":"65 St"},{"arrival":"22:13:00","id":"215N","lat":"40.837288","lon":"-73.887734","name":"174 St"},{"arrival":"22:13:30","id":"L17S","lat":"40.699814","lon":"-73.911586","name":"Myrtle - Wyckoff Avs"},{"arrival":"22:13:00","id":"235N","lat":"40.684359","lon":"-73.977666","name":"Atlantic Av - Barclays Ctr"},{"arrival":"22:13:30","id":"D13N","lat":"40.824783","lon":"-73.944216","name":"145 St"},{"arrival":"22:13:00","id":"F07N","lat":"40.718331","lon":"-73.837324","name":"75 Av"},{"arrival":"22:13:00","id":"233N","lat":"40.690545","lon":"-73.985065","name":"Hoyt St"},{"arrival":"22:13:30","id":"L21N","lat":"40.682829","lon":"-73.905249","name":"Bushwick Av - Aberdeen St"},{"arrival":"22:13:30","id":"G10N","lat":"40.729846","lon":"-73.861604","name":"63 Dr - Rego Park"},{"arrival":"22:13:30","id":"G10N","lat":"40.729846","lon":"-73.861604","name":"63 Dr - Rego Park"},{"arrival":"22:13:00","id":"701S","lat":"40.7596","lon":"-73.83003","name":"Flushing - Main St"},{"arrival":"22:13:30","id":"701N","lat":"40.7596","lon":"-73.83003","name":"Flushing - Main St"},{"arrival":"22:13:00","id":"Q01S","lat":"40.718383","lon":"-74.00046","name":"Canal St"},{"arrival":"22:13:30","id":"J16S","lat":"40.692435","lon":"-73.86001","name":"85 St - Forest Pkwy"},{"arrival":"22:13:30","id":"J16S","lat":"40.692435","lon":"-73.86001","name":"85 St - Forest Pkwy"},{"arrival":"22:13:00","id":"S28S","lat":"40.621319","lon":"-74.071402","name":"Clifton"},{"arrival":"22:13:00","id":"S28S","lat":"40.621319","lon":"-74.071402","name":"Clifton"},{"arrival":"22:13:00","id":"S28S","lat":"40.621319","lon":"-74.071402","name":"Clifton"},{"arrival":"22:13:30","id":"M04S","lat":"40.706186","lon":"-73.895877","name":"Fresh Pond Rd"},{"arrival":"22:13:30","id":"D17N","lat":"40.749719","lon":"-73.987823","name":"34 St - Herald Sq"},{"arrival":"22:13:00","id":"628S","lat":"40.768141","lon":"-73.96387","name":"68 St - Hunter College"},{"arrival":"22:13:30","id":"725N","lat":"40.755477","lon":"-73.987691","name":"Times Sq - 42 St"},{"arrival":"22:13:30","id":"R39S","lat":"40.648939","lon":"-74.010006","name":"45 St"},{"arrival":"22:13:30","id":"R39N","lat":"40.648939","lon":"-74.010006","name":"45 St"},{"arrival":"22:13:00","id":"715S","lat":"40.743781","lon":"-73.924016","name":"40 St"},{"arrival":"22:13:30","id":"A43N","lat":"40.686113","lon":"-73.973946","name":"Lafayette Av"},{"arrival":"22:13:00","id":"A43N","lat":"40.686113","lon":"-73.973946","name":"Lafayette Av"},{"arrival":"22:13:00","id":"604S","lat":"40.839892","lon":"-73.842952","name":"Westchester Sq - E Tremont Av"},{"arrival":"22:13:00","id":"R23S","lat":"40.719527","lon":"-74.001775","name":"Canal St"},{"arrival":"22:13:30","id":"G21S","lat":"40.748973","lon":"-73.937243","name":"Queens Plaza"},{"arrival":"22:13:30","id":"G21S","lat":"40.748973","lon":"-73.937243","name":"Queens Plaza"},{"arrival":"22:13:00","id":"212N","lat":"40.848828","lon":"-73.868457","name":"Bronx Park East"},{"arrival":"22:13:30","id":"107N","lat":"40.869444","lon":"-73.915279","name":"215 St"},{"arrival":"22:13:30","id":"A15S","lat":"40.811109","lon":"-73.952343","name":"125 St"},{"arrival":"22:13:30","id":"423S","lat":"40.692404","lon":"-73.990151","name":"Borough Hall"},{"arrival":"22:13:30","id":"423S","lat":"40.692404","lon":"-73.990151","name":"Borough Hall"},{"arrival":"22:13:00","id":"A64N","lat":"40.684331","lon":"-73.832163","name":"111 St"},{"arrival":"22:13:30","id":"107S","lat":"40.869444","lon":"-73.915279","name":"215 St"},{"arrival":"22:13:00","id":"F09N","lat":"40.747846","lon":"-73.946","name":"Court Sq"},{"arrival":"22:13:00","id":"B18N","lat":"40.613501","lon":"-74.00061","name":"79 St"},{"arrival":"22:13:00","id":"B06N","lat":"40.759145","lon":"-73.95326","name":"Roosevelt Island"},{"arrival":"22:13:30","id":"B15S","lat":"40.631435","lon":"-73.995476","name":"55 St"},{"arrival":"22:13:00","id":"D32S","lat":"40.62927","lon":"-73.961639","name":"Avenue H"},{"arrival":"22:13:00","id":"D32S","lat":"40.62927","lon":"-73.961639","name":"Avenue H"},{"arrival":"22:13:00","id":"D32S","lat":"40.62927","lon":"-73.961639","name":"Avenue H"},{"arrival":"22:13:30","id":"B18S","lat":"40.613501","lon":"-74.00061","name":"79 St"},{"arrival":"22:13:30","id":"G28N","lat":"40.724635","lon":"-73.951277","name":"Nassau Av"},{"arrival":"22:13:00","id":"205S","lat":"40.893193","lon":"-73.857473","name":"233 St"},{"arrival":"22:13:00","id":"205S","lat":"40.893193","lon":"-73.857473","name":"233 St"},{"arrival":"22:13:30","id":"702S","lat":"40.754622","lon":"-73.845625","name":"Mets - Willets Point"},{"arrival":"22:13:00","id":"G35N","lat":"40.688089","lon":"-73.966839","name":"Clinton - Washington Avs"},{"arrival":"22:13:00","id":"205N","lat":"40.893193","lon":"-73.857473","name":"233 St"},{"arrival":"22:13:30","id":"121N","lat":"40.788644","lon":"-73.976218","name":"86 St"},{"arrival":"22:13:30","id":"D25N","lat":"40.67705","lon":"-73.972367","name":"7 Av"},{"arrival":"22:13:30","id":"F01S","lat":"40.712646","lon":"-73.783817","name":"Jamaica - 179 St"},{"arrival":"22:13:30","id":"F01S","lat":"40.712646","lon":"-73.783817","name":"Jamaica - 179 St"},{"arrival":"22:13:00","id":"302N","lat":"40.820421","lon":"-73.936245","name":"145 St"},{"arrival":"22:13:00","id":"237N","lat":"40.675235","lon":"-73.971046","name":"Grand Army Plaza"},{"arrival":"22:13:00","id":"302S","lat":"40.820421","lon":"-73.936245","name":"145 St"},{"arrival":"22:13:30","id":"609N","lat":"40.831509","lon":"-73.867618","name":"St Lawrence Av"},{"arrival":"22:13:00","id":"609N","lat":"40.831509","lon":"-73.867618","name":"St Lawrence Av"},{"arrival":"22:13:00","id":"112S","lat":"40.840556","lon":"-73.940133","name":"168 St - Washington Hts"},{"arrival":"22:13:30","id":"M16S","lat":"40.708359","lon":"-73.957757","name":"Marcy Av"},{"arrival":"22:13:00","id":"112N","lat":"40.840556","lon":"-73.940133","name":"168 St - Washington Hts"},{"arrival":"22:13:30","id":"503S","lat":"40.869526","lon":"-73.846384","name":"Gun Hill Rd"},{"arrival":"22:13:30","id":"503S","lat":"40.869526","lon":"-73.846384","name":"Gun Hill Rd"},{"arrival":"22:13:30","id":"A06S","lat":"40.851695","lon":"-73.937969","name":"181 St"},{"arrival":"22:13:30","id":"104N","lat":"40.878856","lon":"-73.904834","name":"231 St"},{"arrival":"22:13:30","id":"504N","lat":"40.858985","lon":"-73.855359","name":"Pelham Pkwy"},{"arrival":"22:13:00","id":"R22S","lat":"40.724329","lon":"-73.997702","name":"Prince St"},{"arrival":"22:13:00","id":"239N","lat":"40.670682","lon":"-73.958131","name":"Franklin Av"},{"arrival":"22:13:30","id":"N05S","lat":"40.620671","lon":"-73.990414","name":"18 Av"},{"arrival":"22:13:00","id":"G26S","lat":"40.731352","lon":"-73.954449","name":"Greenpoint Av"},{"arrival":"22:13:00","id":"G26S","lat":"40.731352","lon":"-73.954449","name":"Greenpoint Av"},{"arrival":"22:13:30","id":"408N","lat":"40.858407","lon":"-73.903879","name":"183 St"},{"arrival":"22:13:30","id":"408N","lat":"40.858407","lon":"-73.903879","name":"183 St"},{"arrival":"22:13:00","id":"L10S","lat":"40.714063","lon":"-73.950275","name":"Lorimer St"},{"arrival":"22:13:00","id":"630N","lat":"40.757107","lon":"-73.97192","name":"51 St"},{"arrival":"22:13:00","id":"D41N","lat":"40.576312","lon":"-73.968501","name":"Ocean Pkwy"},{"arrival":"22:13:30","id":"A15N","lat":"40.811109","lon":"-73.952343","name":"125 St"},{"arrival":"22:13:30","id":"A15N","lat":"40.811109","lon":"-73.952343","name":"125 St"},{"arrival":"22:13:00","id":"122S","lat":"40.783934","lon":"-73.979917","name":"79 St"},{"arrival":"22:13:00","id":"D20S","lat":"40.732338","lon":"-74.000495","name":"W 4 St"},{"arrival":"22:13:30","id":"G08S","lat":"40.721691","lon":"-73.844521","name":"Forest Hills - 71 Av"},{"arrival":"22:13:30","id":"L22N","lat":"40.678856","lon":"-73.90324","name":"Broadway Jct"},{"arrival":"22:13:30","id":"L03S","lat":"40.734789","lon":"-73.99073","name":"Union Sq - 14 St"},{"arrival":"22:13:30","id":"L03S","lat":"40.734789","lon":"-73.99073","name":"Union Sq - 14 St"},{"arrival":"22:13:30","id":"230N","lat":"40.706821","lon":"-74.0091","name":"Wall St"},{"arrival":"22:13:00","id":"R16S","lat":"40.754672","lon":"-73.986754","name":"Times Sq - 42 St"},{"arrival":"22:13:00","id":"253N","lat":"40.662549","lon":"-73.908946","name":"Rockaway Av"},{"arrival":"22:13:00","id":"253N","lat":"40.662549","lon":"-73.908946","name":"Rockaway Av"},{"arrival":"22:13:00","id":"131N","lat":"40.74104","lon":"-73.997871","name":"18 St"},{"arrival":"22:13:00","id":"243N","lat":"40.656652","lon":"-73.9502","name":"Winthrop St"},{"arrival":"22:13:30","id":"243N","lat":"40.656652","lon":"-73.9502","name":"Winthrop St"},{"arrival":"22:13:00","id":"109S","lat":"40.860531","lon":"-73.925536","name":"Dyckman St"},{"arrival":"22:13:30","id":"N05N","lat":"40.620671","lon":"-73.990414","name":"18 Av"},{"arrival":"22:13:00","id":"N05N","lat":"40.620671","lon":"-73.990414","name":"18 Av"},{"arrival":"22:13:30","id":"131S","lat":"40.74104","lon":"-73.997871","name":"18 St"},{"arrival":"22:13:00","id":"R16N","lat":"40.754672","lon":"-73.986754","name":"Times Sq - 42 St"},{"arrival":"22:13:00","id":"A07S","lat":"40.847391","lon":"-73.939704","name":"175 St"},{"arrival":"22:13:30","id":"H03N","lat":"40.660476","lon":"-73.830301","name":"Howard Beach - JFK Airport"},{"arrival":"22:13:30","id":"254S","lat":"40.663515","lon":"-73.902447","name":"Junius St"},{"arrival":"22:13:30","id":"G09N","lat":"40.726523","lon":"-73.852719","name":"67 Av"},{"arrival":"22:13:00","id":"623S","lat":"40.79502","lon":"-73.94425","name":"110 St"},{"arrival":"22:13:00","id":"623S","lat":"40.79502","lon":"-73.94425","name":"110 St"},{"arrival":"22:13:30","id":"116N","lat":"40.815581","lon":"-73.958372","name":"125 St"},{"arrival":"22:13:00","id":"635S","lat":"40.734673","lon":"-73.989951","name":"14 St - Union Sq"},{"arrival":"22:13:30","id":"635S","lat":"40.734673","lon":"-73.989951","name":"14 St - Union Sq"},{"arrival":"22:13:00","id":"708N","lat":"40.748408","lon":"-73.876613","name":"90 St - Elmhurst Av"},{"arrival":"22:13:30","id":"708S","lat":"40.748408","lon":"-73.876613","name":"90 St - Elmhurst Av"},{"arrival":"22:13:30","id":"708S","lat":"40.748408","lon":"-73.876613","name":"90 St - Elmhurst Av"},{"arrival":"22:13:00","id":"635N","lat":"40.734673","lon":"-73.989951","name":"14 St - Union Sq"},{"arrival":"22:13:30","id":"635N","lat":"40.734673","lon":"-73.989951","name":"14 St - Union Sq"},{"arrival":"22:13:00","id":"R30N","lat":"40.690635","lon":"-73.981824","name":"DeKalb Av"},{"arrival":"22:13:00","id":"R30N","lat":"40.690635","lon":"-73.981824","name":"DeKalb Av"},{"arrival":"22:13:30","id":"213S","lat":"40.841894","lon":"-73.873488","name":"E 180 St"},{"arrival":"22:13:30","id":"F31N","lat":"40.625322","lon":"-73.976127","name":"Avenue I"},{"arrival":"22:13:00","id":"229S","lat":"40.709416","lon":"-74.006571","name":"Fulton St"},{"arrival":"22:13:30","id":"229S","lat":"40.709416","lon":"-74.006571","name":"Fulton St"},{"arrival":"22:13:00","id":"229S","lat":"40.709416","lon":"-74.006571","name":"Fulton St"},{"arrival":"22:13:30","id":"G29S","lat":"40.712792","lon":"-73.951418","name":"Metropolitan Av"},{"arrival":"22:13:30","id":"L06N","lat":"40.730953","lon":"-73.981628","name":"1 Av"},{"arrival":"22:13:30","id":"L06N","lat":"40.730953","lon":"-73.981628","name":"1 Av"},{"arrival":"22:13:00","id":"F36S","lat":"40.596063","lon":"-73.973357","name":"Avenue U"},{"arrival":"22:13:00","id":"G34S","lat":"40.688873","lon":"-73.96007","name":"Classon Av"},{"arrival":"22:13:00","id":"G34S","lat":"40.688873","lon":"-73.96007","name":"Classon Av"},{"arrival":"22:13:00","id":"B12N","lat":"40.646292","lon":"-73.994324","name":"9 Av"},{"arrival":"22:13:00","id":"718S","lat":"40.750582","lon":"-73.940202","name":"Queensboro Plaza"},{"arrival":"22:13:00","id":"L14S","lat":"40.706152","lon":"-73.933147","name":"Morgan Av"},{"arrival":"22:13:00","id":"D11S","lat":"40.827905","lon":"-73.925651","name":"161 St - Yankee Stadium"},{"arrival":"22:13:00","id":"R13N","lat":"40.764811","lon":"-73.973347","name":"5 Av/59 St"},{"arrival":"22:13:30","id":"126N","lat":"40.761728","lon":"-73.983849","name":"50 St"},{"arrival":"22:13:00","id":"J22N","lat":"40.679947","lon":"-73.884639","name":"Cleveland St"},{"arrival":"22:13:00","id":"J22N","lat":"40.679947","lon":"-73.884639","name":"Cleveland St"},{"arrival":"22:13:30","id":"D24S","lat":"40.68446","lon":"-73.97689","name":"Atlantic Av - Barclays Ctr"},{"arrival":"22:13:30","id":"A24N","lat":"40.768296","lon":"-73.981736","name":"59 St - Columbus Circle"},{"arrival":"22:13:00","id":"A24S","lat":"40.768296","lon":"-73.981736","name":"59 St - Columbus Circle"},{"arrival":"22:13:30","id":"A24S","lat":"40.768296","lon":"-73.981736","name":"59 St - Columbus Circle"},{"arrival":"22:13:00","id":"A24S","lat":"40.768296","lon":"-73.981736","name":"59 St - Columbus Circle"},{"arrival":"22:13:00","id":"J31N","lat":"40.693342","lon":"-73.928814","name":"Kosciusko St"},{"arrival":"22:13:00","id":"234N","lat":"40.688246","lon":"-73.980492","name":"Nevins St"},{"arrival":"22:13:30","id":"L21S","lat":"40.682829","lon":"-73.905249","name":"Bushwick Av - Aberdeen St"},{"arrival":"22:13:00","id":"D07N","lat":"40.85041","lon":"-73.905227","name":"Tremont Av"},{"arrival":"22:13:30","id":"J13N","lat":"40.697418","lon":"-73.836345","name":"111 St"},{"arrival":"22:13:30","id":"J13N","lat":"40.697418","lon":"-73.836345","name":"111 St"},{"arrival":"22:13:00","id":"R04N","lat":"40.766779","lon":"-73.921479","name":"30 Av"},{"arrival":"22:13:30","id":"617N","lat":"40.805368","lon":"-73.914042","name":"Cypress Av"},{"arrival":"22:13:30","id":"129N","lat":"40.747215","lon":"-73.993365","name":"28 St"},{"arrival":"22:13:30","id":"607N","lat":"40.834255","lon":"-73.851222","name":"Castle Hill Av"},{"arrival":"22:13:00","id":"607S","lat":"40.834255","lon":"-73.851222","name":"Castle Hill Av"},{"arrival":"22:13:00","id":"H07S","lat":"40.592374","lon":"-73.788522","name":"Beach 60 St"},{"arrival":"22:13:00","id":"H07S","lat":"40.592374","lon":"-73.788522","name":"Beach 60 St"},{"arrival":"22:13:30","id":"617S","lat":"40.805368","lon":"-73.914042","name":"Cypress Av"},{"arrival":"22:13:30","id":"F16N","lat":"40.713715","lon":"-73.990173","name":"East Broadway"},{"arrival":"22:13:30","id":"F16N","lat":"40.713715","lon":"-73.990173","name":"East Broadway"},{"arrival":"22:13:30","id":"A34S","lat":"40.720824","lon":"-74.005229","name":"Canal St"},{"arrival":"22:13:00","id":"S13S","lat":"40.519631","lon":"-74.229141","name":"Richmond Valley"},{"arrival":"22:13:00","id":"S13S","lat":"40.519631","lon":"-74.229141","name":"Richmond Valley"},{"arrival":"22:13:00","id":"S13S","lat":"40.519631","lon":"-74.229141","name":"Richmond Valley"},{"arrival":"22:13:30","id":"208N","lat":"40.87785","lon":"-73.866256","name":"Gun Hill Rd"},{"arrival":"22:13:30","id":"208N","lat":"40.87785","lon":"-73.866256","name":"Gun Hill Rd"},{"arrival":"22:13:00","id":"217S","lat":"40.824073","lon":"-73.893064","name":"Simpson St"},{"arrival":"22:13:00","id":"R45N","lat":"40.616622","lon":"-74.030876","name":"Bay Ridge - 95 St"},{"arrival":"22:13:30","id":"R45N","lat":"40.616622","lon":"-74.030876","name":"Bay Ridge - 95 St"},{"arrival":"22:13:00","id":"L11N","lat":"40.714565","lon":"-73.944053","name":"Graham Av"},{"arrival":"22:13:00","id":"L11N","lat":"40.714565","lon":"-73.944053","name":"Graham Av"},{"arrival":"22:13:00","id":"631S","lat":"40.751776","lon":"-73.976848","name":"Grand Central - 42 St"},{"arrival":"22:13:30","id":"631N","lat":"40.751776","lon":"-73.976848","name":"Grand Central - 42 St"},{"arrival":"22:13:30","id":"L11S","lat":"40.714565","lon":"-73.944053","name":"Graham Av"},{"arrival":"22:13:30","id":"D14N","lat":"40.762862","lon":"-73.981637","name":"7 Av"},{"arrival":"22:13:00","id":"D15S","lat":"40.758663","lon":"-73.981329","name":"47-50 Sts - Rockefeller Ctr"},{"arrival":"22:13:00","id":"D15S","lat":"40.758663","lon":"-73.981329","name":"47-50 Sts - Rockefeller Ctr"},{"arrival":"22:13:00","id":"D15S","lat":"40.758663","lon":"-73.981329","name":"47-50 Sts - Rockefeller Ctr"},{"arrival":"22:13:00","id":"123N","lat":"40.778453","lon":"-73.98197","name":"72 St"},{"arrival":"22:13:00","id":"123N","lat":"40.778453","lon":"-73.98197","name":"72 St"},{"arrival":"22:13:30","id":"123N","lat":"40.778453","lon":"-73.98197","name":"72 St"},{"arrival":"22:13:30","id":"D27N","lat":"40.655292","lon":"-73.961495","name":"Parkside Av"},{"arrival":"22:13:30","id":"L02N","lat":"40.737335","lon":"-73.996786","name":"6 Av"},{"arrival":"22:13:00","id":"231S","lat":"40.697466","lon":"-73.993086","name":"Clark St"},{"arrival":"22:13:00","id":"231S","lat":"40.697466","lon":"-73.993086","name":"Clark St"},{"arrival":"22:13:30","id":"231S","lat":"40.697466","lon":"-73.993086","name":"Clark St"},{"arrival":"22:13:00","id":"231N","lat":"40.697466","lon":"-73.993086","name":"Clark St"},{"arrival":"22:13:00","id":"G14S","lat":"40.746644","lon":"-73.891338","name":"Jackson Hts - Roosevelt Av"},{"arrival":"22:13:00","id":"G14S","lat":"40.746644","lon":"-73.891338","name":"Jackson Hts - Roosevelt Av"},{"arrival":"22:13:00","id":"G14S","lat":"40.746644","lon":"-73.891338","name":"Jackson Hts - Roosevelt Av"},{"arrival":"22:13:30","id":"L20N","lat":"40.688764","lon":"-73.904046","name":"Wilson Av"},{"arrival":"22:13:30","id":"R17N","lat":"40.749567","lon":"-73.98795","name":"34 St - Herald Sq"},{"arrival":"22:13:00","id":"249S","lat":"40.669399","lon":"-73.942161","name":"Kingston Av"},{"arrival":"22:13:00","id":"249S","lat":"40.669399","lon":"-73.942161","name":"Kingston Av"},{"arrival":"22:13:30","id":"614N","lat":"40.816104","lon":"-73.896435","name":"Longwood Av"},{"arrival":"22:13:30","id":"A32N","lat":"40.732338","lon":"-74.000495","name":"W 4 St"},{"arrival":"22:13:30","id":"A32N","lat":"40.732338","lon":"-74.000495","name":"W 4 St"},{"arrival":"22:13:30","id":"A28N","lat":"40.752287","lon":"-73.993391","name":"34 St - Penn Station"},{"arrival":"22:13:30","id":"A28N","lat":"40.752287","lon":"-73.993391","name":"34 St - Penn Station"},{"arrival":"22:13:00","id":"249N","lat":"40.669399","lon":"-73.942161","name":"Kingston Av"},{"arrival":"22:13:30","id":"R31S","lat":"40.683666","lon":"-73.97881","name":"Atlantic Av - Barclays Ctr"},{"arrival":"22:13:30","id":"A51N","lat":"40.678334","lon":"-73.905316","name":"Broadway Jct"},{"arrival":"22:13:30","id":"714S","lat":"40.743132","lon":"-73.918435","name":"46 St"},{"arrival":"22:13:30","id":"603N","lat":"40.843863","lon":"-73.836322","name":"Middletown Rd"},{"arrival":"22:13:00","id":"N04S","lat":"40.624842","lon":"-73.996353","name":"New Utrecht Av"},{"arrival":"22:13:00","id":"714N","lat":"40.743132","lon":"-73.918435","name":"46 St"},{"arrival":"22:13:30","id":"A22S","lat":"40.775594","lon":"-73.97641","name":"72 St"},{"arrival":"22:13:30","id":"A22S","lat":"40.775594","lon":"-73.97641","name":"72 St"},{"arrival":"22:13:00","id":"D34N","lat":"40.617618","lon":"-73.959399","name":"Avenue M"},{"arrival":"22:13:00","id":"D34N","lat":"40.617618","lon":"-73.959399","name":"Avenue M"},{"arrival":"22:13:00","id":"A02N","lat":"40.868072","lon":"-73.919899","name":"Inwood - 207 St"},{"arrival":"22:13:30","id":"R41N","lat":"40.641362","lon":"-74.017881","name":"59 St"},{"arrival":"22:13:00","id":"L15N","lat":"40.706607","lon":"-73.922913","name":"Jefferson St"},{"arrival":"22:13:00","id":"L15N","lat":"40.706607","lon":"-73.922913","name":"Jefferson St"},{"arrival":"22:13:00","id":"228N","lat":"40.713051","lon":"-74.008811","name":"Park Pl"},{"arrival":"22:13:30","id":"G33N","lat":"40.689627","lon":"-73.953522","name":"Bedford - Nostrand Avs"},{"arrival":"22:13:30","id":"137N","lat":"40.715478","lon":"-74.009266","name":"Chambers St"},{"arrival":"22:13:30","id":"137N","lat":"40.715478","lon":"-74.009266","name":"Chambers St"},{"arrival":"22:13:00","id":"127S","lat":"40.75529","lon":"-73.987495","name":"Times Sq - 42 St"},{"arrival":"22:13:30","id":"127S","lat":"40.75529","lon":"-73.987495","name":"Times Sq - 42 St"},{"arrival":"22:13:30","id":"R14N","lat":"40.764664","lon":"-73.980658","name":"57 St - 7 Av"},{"arrival":"22:13:30","id":"245N","lat":"40.645098","lon":"-73.948959","name":"Beverly Rd"},{"arrival":"22:13:30","id":"A31S","lat":"40.740893","lon":"-74.00169","name":"14 St"},{"arrival":"22:13:30","id":"A31S","lat":"40.740893","lon":"-74.00169","name":"14 St"},{"arrival":"22:13:30","id":"A31S","lat":"40.740893","lon":"-74.00169","name":"14 St"},{"arrival":"22:13:00","id":"639S","lat":"40.718803","lon":"-74.000193","name":"Canal St"},{"arrival":"22:13:30","id":"245S","lat":"40.645098","lon":"-73.948959","name":"Beverly Rd"},{"arrival":"22:13:00","id":"A31N","lat":"40.740893","lon":"-74.00169","name":"14 St"},{"arrival":"22:13:00","id":"127N","lat":"40.75529","lon":"-73.987495","name":"Times Sq - 42 St"},{"arrival":"22:13:30","id":"A36S","lat":"40.714111","lon":"-74.008585","name":"Chambers St"},{"arrival":"22:13:00","id":"221S","lat":"40.816109","lon":"-73.917757","name":"3 Av - 149 St"},{"arrival":"22:13:00","id":"221S","lat":"40.816109","lon":"-73.917757","name":"3 Av - 149 St"},{"arrival":"22:13:30","id":"A25N","lat":"40.762456","lon":"-73.985984","name":"50 St"},{"arrival":"22:13:30","id":"A25S","lat":"40.762456","lon":"-73.985984","name":"50 St"},{"arrival":"22:13:00","id":"D22N","lat":"40.718267","lon":"-73.993753","name":"Grand St"},{"arrival":"22:13:00","id":"621S","lat":"40.804138","lon":"-73.937594","name":"125 St"},{"arrival":"22:13:00","id":"M01S","lat":"40.711396","lon":"-73.889601","name":"Middle Village - Metropolitan Av"},{"arrival":"22:13:00","id":"R21N","lat":"40.730328","lon":"-73.992629","name":"8 St - NYU"},{"arrival":"22:13:00","id":"418S","lat":"40.710368","lon":"-74.009509","name":"Fulton St"},{"arrival":"22:13:00","id":"418S","lat":"40.710368","lon":"-74.009509","name":"Fulton St"},{"arrival":"22:13:30","id":"F22S","lat":"40.67358","lon":"-73.995959","name":"Smith - 9 Sts"},{"arrival":"22:13:30","id":"F22S","lat":"40.67358","lon":"-73.995959","name":"Smith - 9 Sts"},{"arrival":"22:13:30","id":"640S","lat":"40.713065","lon":"-74.004131","name":"Brooklyn Bridge - City Hall"},{"arrival":"22:13:30","id":"F25S","lat":"40.660365","lon":"-73.979493","name":"15 St - Prospect Park"},{"arrival":"22:13:30","id":"640N","lat":"40.713065","lon":"-74.004131","name":"Brooklyn Bridge - City Hall"},{"arrival":"22:13:30","id":"F15N","lat":"40.718611","lon":"-73.988114","name":"Delancey St"},{"arrival":"22:13:30","id":"120N","lat":"40.793919","lon":"-73.972323","name":"96 St"},{"arrival":"22:13:30","id":"120N","lat":"40.793919","lon":"-73.972323","name":"96 St"},{"arrival":"22:13:30","id":"256N","lat":"40.665449","lon":"-73.889395","name":"Van Siclen Av"},{"arrival":"22:13:00","id":"R11N","lat":"40.76266","lon":"-73.967258","name":"Lexington Av/59 St"},{"arrival":"22:13:00","id":"120S","lat":"40.793919","lon":"-73.972323","name":"96 St"},{"arrival":"22:13:00","id":"236S","lat":"40.680829","lon":"-73.975098","name":"Bergen St"},{"arrival":"22:13:00","id":"133S","lat":"40.733422","lon":"-74.002906","name":"Christopher St - Sheridan Sq"},{"arrival":"22:13:30","id":"D14S","lat":"40.762862","lon":"-73.981637","name":"7 Av"},{"arrival":"22:13:30","id":"L27S","lat":"40.658733","lon":"-73.899232","name":"New Lots Av"},{"arrival":"22:13:00","id":"R18S","lat":"40.745494","lon":"-73.988691","name":"28 St"},{"arrival":"22:13:30","id":"F27N","lat":"40.644041","lon":"-73.979678","name":"Church Av"},{"arrival":"22:13:00","id":"R18N","lat":"40.745494","lon":"-73.988691","name":"28 St"},{"arrival":"22:13:30","id":"625N","lat":"40.785672","lon":"-73.95107","name":"96 St"},{"arrival":"22:13:00","id":"M06N","lat":"40.702762","lon":"-73.90774","name":"Seneca Av"},{"arrival":"22:13:00","id":"S31N","lat":"40.643748","lon":"-74.073643","name":"St George"},{"arrival":"22:13:00","id":"501S","lat":"40.8883","lon":"-73.830834","name":"Eastchester - Dyre Av"},{"arrival":"22:13:00","id":"F29S","lat":"40.636119","lon":"-73.978172","name":"Ditmas Av"},{"arrival":"22:13:30","id":"R36N","lat":"40.655144","lon":"-74.003549","name":"36 St"},{"arrival":"22:13:00","id":"R36N","lat":"40.655144","lon":"-74.003549","name":"36 St"},{"arrival":"22:13:30","id":"R36N","lat":"40.655144","lon":"-74.003549","name":"36 St"},{"arrival":"22:13:00","id":"138N","lat":"40.711835","lon":"-74.012188","name":"Cortlandt St"},{"arrival":"22:13:30","id":"A50S","lat":"40.67834","lon":"-73.911946","name":"Rockaway Av"},{"arrival":"22:13:30","id":"A50S","lat":"40.67834","lon":"-73.911946","name":"Rockaway Av"},{"arrival":"22:13:30","id":"A12S","lat":"40.824783","lon":"-73.944216","name":"145 St"},{"arrival":"22:13:00","id":"A12S","lat":"40.824783","lon":"-73.944216","name":"145 St"},{"arrival":"22:13:30","id":"138S","lat":"40.711835","lon":"-74.012188","name":"Cortlandt St"},{"arrival":"22:13:00","id":"A34N","lat":"40.720824","lon":"-74.005229","name":"Canal St"},{"arrival":"22:13:00","id":"N10N","lat":"40.592721","lon":"-73.97823","name":"86 St"},{"arrival":"22:13:00","id":"N10N","lat":"40.592721","lon":"-73.97823","name":"86 St"},{"arrival":"22:13:30","id":"L08S","lat":"40.717304","lon":"-73.956872","name":"Bedford Av"},{"arrival":"22:13:30","id":"L08N","lat":"40.717304","lon":"-73.956872","name":"Bedford Av"},{"arrival":"22:13:30","id":"M11N","lat":"40.697207","lon":"-73.935657","name":"Myrtle Av"},{"arrival":"22:13:30","id":"M11N","lat":"40.697207","lon":"-73.935657","name":"Myrtle Av"},{"arrival":"22:13:00","id":"709N","lat":"40.747659","lon":"-73.883697","name":"82 St - Jackson Hts"},{"arrival":"22:13:00","id":"G12N","lat":"40.737015","lon":"-73.877223","name":"Grand Av - Newtown"},{"arrival":"22:13:00","id":"115S","lat":"40.822008","lon":"-73.953676","name":"137 St - City College"},{"arrival":"22:13:00","id":"124S","lat":"40.77344","lon":"-73.982209","name":"66 St - Lincoln Center"},{"arrival":"22:13:00","id":"111N","lat":"40.849505","lon":"-73.933596","name":"181 St"},{"arrival":"22:13:00","id":"B21S","lat":"40.601875","lon":"-73.993728","name":"Bay Pkwy"},{"arrival":"22:13:00","id":"B21S","lat":"40.601875","lon":"-73.993728","name":"Bay Pkwy"},{"arrival":"22:13:00","id":"L01N","lat":"40.739777","lon":"-74.002578","name":"8 Av"},{"arrival":"22:13:00","id":"R01S","lat":"40.775036","lon":"-73.912034","name":"Astoria - Ditmars Blvd"},{"arrival":"22:13:00","id":"J27S","lat":"40.679498","lon":"-73.904512","name":"Broadway Jct"},{"arrival":"22:13:00","id":"220N","lat":"40.81649","lon":"-73.907807","name":"Jackson Av"},{"arrival":"22:13:00","id":"220N","lat":"40.81649","lon":"-73.907807","name":"Jackson Av"},{"arrival":"22:13:00","id":"F38S","lat":"40.58962","lon":"-73.97425","name":"Avenue X"},{"arrival":"22:13:30","id":"M21S","lat":"40.713243","lon":"-74.003401","name":"Chambers St"},{"arrival":"22:13:30","id":"R33N","lat":"40.670847","lon":"-73.988302","name":"9 St"},{"arrival":"22:13:00","id":"F24N","lat":"40.666271","lon":"-73.980305","name":"7 Av"},{"arrival":"22:13:30","id":"F24N","lat":"40.666271","lon":"-73.980305","name":"7 Av"},{"arrival":"22:13:30","id":"J15S","lat":"40.693879","lon":"-73.851576","name":"Woodhaven Blvd"},{"arrival":"22:13:30","id":"618S","lat":"40.807566","lon":"-73.91924","name":"Brook Av"},{"arrival":"22:13:00","id":"A49S","lat":"40.678822","lon":"-73.920786","name":"Ralph Av"},{"arrival":"22:13:30","id":"712N","lat":"40.74563","lon":"-73.902984","name":"Woodside - 61 St"},{"arrival":"22:13:30","id":"629S","lat":"40.762526","lon":"-73.967967","name":"59 St"},{"arrival":"22:13:30","id":"629N","lat":"40.762526","lon":"-73.967967","name":"59 St"},{"arrival":"22:13:30","id":"629N","lat":"40.762526","lon":"-73.967967","name":"59 St"},{"arrival":"22:13:30","id":"629N","lat":"40.762526","lon":"-73.967967","name":"59 St"},{"arrival":"22:13:30","id":"629N","lat":"40.762526","lon":"-73.967967","name":"59 St"},{"arrival":"22:13:30","id":"724S","lat":"40.753821","lon":"-73.981963","name":"5 Av"},{"arrival":"22:13:30","id":"719S","lat":"40.747023","lon":"-73.945264","name":"Court Sq"},{"arrival":"22:13:30","id":"G20S","lat":"40.752039","lon":"-73.928781","name":"36 St"},{"arrival":"22:13:30","id":"G20S","lat":"40.752039","lon":"-73.928781","name":"36 St"},{"arrival":"22:13:30","id":"G11S","lat":"40.733106","lon":"-73.869229","name":"Woodhaven Blvd"},{"arrival":"22:13:30","id":"A16S","lat":"40.805085","lon":"-73.954882","name":"116 St"},{"arrival":"22:13:30","id":"110S","lat":"40.855225","lon":"-73.929412","name":"191 St"},{"arrival":"22:13:00","id":"N06N","lat":"40.61741","lon":"-73.985026","name":"20 Av"},{"arrival":"22:13:00","id":"G36S","lat":"40.687119","lon":"-73.975375","name":"Fulton St"},{"arrival":"22:13:30","id":"D43S","lat":"40.577422","lon":"-73.981233","name":"Coney Island - Stillwell Av"},{"arrival":"22:13:30","id":"D43N","lat":"40.577422","lon":"-73.981233","name":"Coney Island - Stillwell Av"},{"arrival":"22:13:00","id":"218N","lat":"40.822181","lon":"-73.896736","name":"Intervale Av"},{"arrival":"22:13:30","id":"R44S","lat":"40.622687","lon":"-74.028398","name":"86 St"},{"arrival":"22:13:00","id":"M09S","lat":"40.698664","lon":"-73.919711","name":"Knickerbocker Av"}]}