{"result":[{"arrival":"22:03:30","id":"R45N","lat":"40.616622","lon":"-74.030876","name":"Bay Ridge - 95 St"},{"arrival":"22:03:30","id":"131S","lat":"40.74104","lon":"-73.997871","name":"18 St"},{"arrival":"22:03:30","id":"G24N","lat":"40.744065","lon":"-73.949724","name":"21 St"},{"arrival":"22:03:00","id":"G24N","lat":"40.744065","lon":"-73.949724","name":"21 St"},{"arrival":"22:03:30","id":"M01N","lat":"40.711396","lon":"-73.889601","name":"Middle Village - Metropolitan Av"},{"arrival":"22:03:30","id":"610N","lat":"40.829521","lon":"-73.874516","name":"Morrison Av- Sound View"},{"arrival":"22:03:00","id":"132S","lat":"40.737826","lon":"-74.000201","name":"14 St"},{"arrival":"22:03:00","id":"A46N","lat":"40.680438","lon":"-73.950426","name":"Nostrand Av"},{"arrival":"22:03:30","id":"F01S","lat":"40.712646","lon":"-73.783817","name":"Jamaica - 179 St"},{"arrival":"22:03:30","id":"M01S","lat":"40.711396","lon":"-73.889601","name":"Middle Village - Metropolitan Av"},{"arrival":"22:03:30","id":"629N","lat":"40.762526","lon":"-73.967967","name":"59 St"},{"arrival":"22:03:30","id":"A34S","lat":"40.720824","lon":"-74.005229","name":"Canal St"},{"arrival":"22:03:30","id":"A34S","lat":"40.720824","lon":"-74.005229","name":"Canal St"},{"arrival":"22:03:30","id":"A34S","lat":"40.720824","lon":"-74.005229","name":"Canal St"},{"arrival":"22:03:30","id":"G10S","lat":"40.729846","lon":"-73.861604","name":"63 Dr - Rego Park"},{"arrival":"22:03:00","id":"140N","lat":"40.701411","lon":"-74.013205","name":"South Ferry Loop"},{"arrival":"22:03:30","id":"G06N","lat":"40.700486","lon":"-73.807969","name":"Sutphin Blvd - Archer Av - JFK Airport"},{"arrival":"22:03:00","id":"D06S","lat":"40.856093","lon":"-73.900741","name":"182-183 Sts"},{"arrival":"22:03:00","id":"222S","lat":"40.81841","lon":"-73.926718","name":"149 St - Grand Concourse"},{"arrival":"22:03:00","id":"222S","lat":"40.81841","lon":"-73.926718","name":"149 St - Grand Concourse"},{"arrival":"22:03:00","id":"222N","lat":"40.81841","lon":"-73.926718","name":"149 St - Grand Concourse"},{"arrival":"22:03:00","id":"222N","lat":"40.81841","lon":"-73.926718","name":"149 St - Grand Concourse"},{"arrival":"22:03:00","id":"A51S","lat":"40.678334","lon":"-73.905316","name":"Broadway Jct"},{"arrival":"22:03:00","id":"Q01N","lat":"40.718383","lon":"-74.00046","name":"Canal St"},{"arrival":"22:03:30","id":"N02N","lat":"40.635064","lon":"-74.011719","name":"8 Av"},{"arrival":"22:03:30","id":"126S","lat":"40.761728","lon":"-73.983849","name":"50 St"},{"arrival":"22:03:00","id":"205N","lat":"40.893193","lon":"-73.857473","name":"233 St"},{"arrival":"22:03:30","id":"235N","lat":"40.684359","lon":"-73.977666","name":"Atlantic Av - Barclays Ctr"},{"arrival":"22:03:30","id":"235N","lat":"40.684359","lon":"-73.977666","name":"Atlantic Av - Barclays Ctr"},{"arrival":"22:03:30","id":"126N","lat":"40.761728","lon":"-73.983849","name":"50 St"},{"arrival":"22:03:30","id":"R33N","lat":"40.670847","lon":"-73.988302","name":"9 St"},{"arrival":"22:03:30","id":"132N","lat":"40.737826","lon":"-74.000201","name":"14 St"},{"arrival":"22:03:00","id":"D21N","lat":"40.725297","lon":"-73.996204","name":"Broadway-Lafayette St"},{"arrival":"22:03:30","id":"F35S","lat":"40.603217","lon":"-73.972361","name":"Kings Hwy"},{"arrival":"22:03:30","id":"640N","lat":"40.713065","lon":"-74.004131","name":"Brooklyn Bridge - City Hall"},{"arrival":"22:03:30","id":"640N","lat":"40.713065","lon":"-74.004131","name":"Brooklyn Bridge - City Hall"},{"arrival":"22:03:30","id":"640N","lat":"40.713065","lon":"-74.004131","name":"Brooklyn Bridge - City Hall"},{"arrival":"22:03:30","id":"640N","lat":"40.713065","lon":"-74.004131","name":"Brooklyn Bridge - City Hall"},{"arrival":"22:03:30","id":"121N","lat":"40.788644","lon":"-73.976218","name":"86 St"},{"arrival":"22:03:00","id":"121S","lat":"40.788644","lon":"-73.976218","name":"86 St"},{"arrival":"22:03:30","id":"F35N","lat":"40.603217","lon":"-73.972361","name":"Kings Hwy"},{"arrival":"22:03:30","id":"B18S","lat":"40.613501","lon":"-74.00061","name":"79 St"},{"arrival":"22:03:00","id":"H08N","lat":"40.592943","lon":"-73.776013","name":"Beach 44 St"},{"arrival":"22:03:30","id":"R42S","lat":"40.634967","lon":"-74.023377","name":"Bay Ridge Av"},{"arrival":"22:03:30","id":"R19S","lat":"40.741303","lon":"-73.989344","name":"23 St"},{"arrival":"22:03:30","id":"A30N","lat":"40.745906","lon":"-73.998041","name":"23 St"},{"arrival":"22:03:30","id":"B15N","lat":"40.631435","lon":"-73.995476","name":"55 St"},{"arrival":"22:03:30","id":"G28N","lat":"40.724635","lon":"-73.951277","name":"Nassau Av"},{"arrival":"22:03:00","id":"F07N","lat":"40.718331","lon":"-73.837324","name":"75 Av"},{"arrival":"22:03:00","id":"F07N","lat":"40.718331","lon":"-73.837324","name":"75 Av"},{"arrival":"22:03:30","id":"128S","lat":"40.750373","lon":"-73.991057","name":"34 St - Penn Station"},{"arrival":"22:03:00","id":"128S","lat":"40.750373","lon":"-73.991057","name":"34 St - Penn Station"},{"arrival":"22:03:30","id":"636N","lat":"40.730054","lon":"-73.99107","name":"Astor Pl"},{"arrival":"22:03:00","id":"B21S","lat":"40.601875","lon":"-73.993728","name":"Bay Pkwy"},{"arrival":"22:03:30","id":"724S","lat":"40.753821","lon":"-73.981963","name":"5 Av"},{"arrival":"22:03:00","id":"603N","lat":"40.843863","lon":"-73.836322","name":"Middletown Rd"},{"arrival":"22:03:00","id":"227S","lat":"40.799075","lon":"-73.951822","name":"Central Park North (110 St)"},{"arrival":"22:03:30","id":"603S","lat":"40.843863","lon":"-73.836322","name":"Middletown Rd"},{"arrival":"22:03:00","id":"R09N","lat":"40.750582","lon":"-73.940202","name":"Queensboro Plaza"},{"arrival":"22:03:30","id":"G09N","lat":"40.726523","lon":"-73.852719","name":"67 Av"},{"arrival":"22:03:00","id":"A41S","lat":"40.692338","lon":"-73.987342","name":"Jay St - MetroTech"},{"arrival":"22:03:30","id":"614N","lat":"40.816104","lon":"-73.896435","name":"Longwood Av"},{"arrival":"22:03:00","id":"215N","lat":"40.837288","lon":"-73.887734","name":"174 St"},{"arrival":"22:03:00","id":"N06N","lat":"40.61741","lon":"-73.985026","name":"20 Av"},{"arrival":"22:03:00","id":"N06S","lat":"40.61741","lon":"-73.985026","name":"20 Av"},{"arrival":"22:03:30","id":"D31N","lat":"40.635082","lon":"-73.962793","name":"Newkirk Av"},{"arrival":"22:03:30","id":"257S","lat":"40.666235","lon":"-73.884079","name":"New Lots Av"},{"arrival":"22:03:30","id":"F27N","lat":"40.644041","lon":"-73.979678","name":"Church Av"},{"arrival":"22:03:00","id":"710N","lat":"40.746848","lon":"-73.891394","name":"74 St - Broadway"},{"arrival":"22:03:00","id":"628S","lat":"40.768141","lon":"-73.96387","name":"68 St - Hunter College"},{"arrival":"22:03:30","id":"611S","lat":"40.828584","lon":"-73.879159","name":"Elder Av"},{"arrival":"22:03:00","id":"A57N","lat":"40.677044","lon":"-73.86505","name":"Grant Av"},{"arrival":"22:03:00","id":"A57N","lat":"40.677044","lon":"-73.86505","name":"Grant Av"},{"arrival":"22:03:30","id":"628N","lat":"40.768141","lon":"-73.96387","name":"68 St - Hunter College"},{"arrival":"22:03:00","id":"J12N","lat":"40.700492","lon":"-73.828294","name":"121 St"},{"arrival":"22:03:00","id":"J12N","lat":"40.700492","lon":"-73.828294","name":"121 St"},{"arrival":"22:03:30","id":"F16S","lat":"40.713715","lon":"-73.990173","name":"East Broadway"},{"arrival":"22:03:30","id":"F16S","lat":"40.713715","lon":"-73.990173","name":"East Broadway"},{"arrival":"22:03:00","id":"A03N","lat":"40.865491","lon":"-73.927271","name":"Dyckman St"},{"arrival":"22:03:30","id":"719S","lat":"40.747023","lon":"-73.945264","name":"Court Sq"},{"arrival":"22:03:30","id":"719S","lat":"40.747023","lon":"-73.945264","name":"Court Sq"},{"arrival":"22:03:00","id":"R39S","lat":"40.648939","lon":"-74.010006","name":"45 St"},{"arrival":"22:03:00","id":"R01S","lat":"40.775036","lon":"-73.912034","name":"Astoria - Ditmars Blvd"},{"arrival":"22:03:30","id":"R39N","lat":"40.648939","lon":"-74.010006","name":"45 St"},{"arrival":"22:03:00","id":"A50N","lat":"40.67834","lon":"-73.911946","name":"Rockaway Av"},{"arrival":"22:03:30","id":"J19S","lat":"40.689941","lon":"-73.87255","name":"Cypress Hills"},{"arrival":"22:03:30","id":"D27N","lat":"40.655292","lon":"-73.961495","name":"Parkside Av"},{"arrival":"22:03:00","id":"R15S","lat":"40.759901","lon":"-73.984139","name":"49 St"},{"arrival":"22:03:00","id":"A05N","lat":"40.859022","lon":"-73.93418","name":"190 St"},{"arrival":"22:03:00","id":"232N","lat":"40.693219","lon":"-73.989998","name":"Borough Hall"},{"arrival":"22:03:00","id":"117S","lat":"40.807722","lon":"-73.96411","name":"116 St - Columbia University"},{"arrival":"22:03:30","id":"117N","lat":"40.807722","lon":"-73.96411","name":"116 St - Columbia University"},{"arrival":"22:03:30","id":"127N","lat":"40.75529","lon":"-73.987495","name":"Times Sq - 42 St"},{"arrival":"22:03:00","id":"127N","lat":"40.75529","lon":"-73.987495","name":"Times Sq - 42 St"},{"arrival":"22:03:30","id":"107N","lat":"40.869444","lon":"-73.915279","name":"215 St"},{"arrival":"22:03:30","id":"242S","lat":"40.662742","lon":"-73.95085","name":"Sterling St"},{"arrival":"22:03:00","id":"242N","lat":"40.662742","lon":"-73.95085","name":"Sterling St"},{"arrival":"22:03:00","id":"R24S","lat":"40.713282","lon":"-74.006978","name":"City Hall"},{"arrival":"22:03:00","id":"F29S","lat":"40.636119","lon":"-73.978172","name":"Ditmas Av"},{"arrival":"22:03:30","id":"D05S","lat":"40.861296","lon":"-73.897749","name":"Fordham Rd"},{"arrival":"22:03:00","id":"D05N","lat":"40.861296","lon":"-73.897749","name":"Fordham Rd"},{"arrival":"22:03:30","id":"D05N","lat":"40.861296","lon":"-73.897749","name":"Fordham Rd"},{"arrival":"22:03:00","id":"504N","lat":"40.858985","lon":"-73.855359","name":"Pelham Pkwy"},{"arrival":"22:03:30","id":"504N","lat":"40.858985","lon":"-73.855359","name":"Pelham Pkwy"},{"arrival":"22:03:30","id":"504N","lat":"40.858985","lon":"-73.855359","name":"Pelham Pkwy"},{"arrival":"22:03:00","id":"G36S","lat":"40.687119","lon":"-73.975375","name":"Fulton St"},{"arrival":"22:03:00","id":"R41N","lat":"40.641362","lon":"-74.017881","name":"59 St"},{"arrival":"22:03:30","id":"A33S","lat":"40.726227","lon":"-74.003739","name":"Spring St"},{"arrival":"22:03:30","id":"A33S","lat":"40.726227","lon":"-74.003739","name":"Spring St"},{"arrival":"22:03:30","id":"A33N","lat":"40.726227","lon":"-74.003739","name":"Spring St"},{"arrival":"22:03:30","id":"A33N","lat":"40.726227","lon":"-74.003739","name":"Spring St"},{"arrival":"22:03:00","id":"627S","lat":"40.77362","lon":"-73.959874","name":"77 St"},{"arrival":"22:03:30","id":"L26S","lat":"40.664038","lon":"-73.900571","name":"Livonia Av"},{"arrival":"22:03:30","id":"637S","lat":"40.725915","lon":"-73.994659","name":"Bleecker St"},{"arrival":"22:03:30","id":"129N","lat":"40.747215","lon":"-73.993365","name":"28 St"},{"arrival":"22:03:30","id":"S04S","lat":"40.670343","lon":"-73.959245","name":"Botanic Garden"},{"arrival":"22:03:30","id":"S04S","lat":"40.670343","lon":"-73.959245","name":"Botanic Garden"},{"arrival":"22:03:30","id":"R11S","lat":"40.76266","lon":"-73.967258","name":"Lexington Av/59 St"},{"arrival":"22:03:00","id":"602N","lat":"40.84681","lon":"-73.832569","name":"Buhre Av"},{"arrival":"22:03:00","id":"226N","lat":"40.802098","lon":"-73.949625","name":"116 St"},{"arrival":"22:03:00","id":"226N","lat":"40.802098","lon":"-73.949625","name":"116 St"},{"arrival":"22:03:30","id":"H15S","lat":"40.580903","lon":"-73.835592","name":"Rockaway Park - Beach 116 St"},{"arrival":"22:03:00","id":"R17N","lat":"40.749567","lon":"-73.98795","name":"34 St - Herald Sq"},{"arrival":"22:03:30","id":"R17N","lat":"40.749567","lon":"-73.98795","name":"34 St - Herald Sq"},{"arrival":"22:03:30","id":"R11N","lat":"40.76266","lon":"-73.967258","name":"Lexington Av/59 St"},{"arrival":"22:03:00","id":"226S","lat":"40.802098","lon":"-73.949625","name":"116 St"},{"arrival":"22:03:30","id":"M11S","lat":"40.697207","lon":"-73.935657","name":"Myrtle Av"},{"arrival":"22:03:30","id":"M11S","lat":"40.697207","lon":"-73.935657","name":"Myrtle Av"},{"arrival":"22:03:30","id":"M11S","lat":"40.697207","lon":"-73.935657","name":"Myrtle Av"},{"arrival":"22:03:00","id":"609S","lat":"40.831509","lon":"-73.867618","name":"St Lawrence Av"},{"arrival":"22:03:30","id":"G14S","lat":"40.746644","lon":"-73.891338","name":"Jackson Hts - Roosevelt Av"},{"arrival":"22:03:00","id":"G14S","lat":"40.746644","lon":"-73.891338","name":"Jackson Hts - Roosevelt Av"},{"arrival":"22:03:30","id":"218N","lat":"40.822181","lon":"-73.896736","name":"Intervale Av"},{"arrival":"22:03:30","id":"218N","lat":"40.822181","lon":"-73.896736","name":"Intervale Av"},{"arrival":"22:03:30","id":"D25N","lat":"40.67705","lon":"-73.972367","name":"7 Av"},{"arrival":"22:03:00","id":"D25N","lat":"40.67705","lon":"-73.972367","name":"7 Av"},{"arrival":"22:03:30","id":"216N","lat":"40.829993","lon":"-73.891865","name":"Freeman St"},{"arrival":"22:03:30","id":"A60S","lat":"40.679843","lon":"-73.85147","name":"88 St"},{"arrival":"22:03:30","id":"A60S","lat":"40.679843","lon":"-73.85147","name":"88 St"},{"arrival":"22:03:00","id":"N05S","lat":"40.620671","lon":"-73.990414","name":"18 Av"},{"arrival":"22:03:00","id":"N05S","lat":"40.620671","lon":"-73.990414","name":"18 Av"},{"arrival":"22:03:00","id":"103N","lat":"40.884667","lon":"-73.90087","name":"238 St"},{"arrival":"22:03:30","id":"113N","lat":"40.834041","lon":"-73.94489","name":"157 St"},{"arrival":"22:03:00","id":"246S","lat":"40.639967","lon":"-73.948411","name":"Newkirk Av"},{"arrival":"22:03:00","id":"D32S","lat":"40.62927","lon":"-73.961639","name":"Avenue H"},{"arrival":"22:03:00","id":"D32S","lat":"40.62927","lon":"-73.961639","name":"Avenue H"},{"arrival":"22:03:00","id":"D32S","lat":"40.62927","lon":"-73.961639","name":"Avenue H"},{"arrival":"22:03:30","id":"250S","lat":"40.668897","lon":"-73.932942","name":"Crown Hts - Utica Av"},{"arrival":"22:03:00","id":"250S","lat":"40.668897","lon":"-73.932942","name":"Crown Hts - Utica Av"},{"arrival":"22:03:00","id":"250S","lat":"40.668897","lon":"-73.932942","name":"Crown Hts - Utica Av"},{"arrival":"22:03:30","id":"B17N","lat":"40.619589","lon":"-73.998864","name":"71 St"},{"arrival":"22:03:30","id":"D24S","lat":"40.68446","lon":"-73.97689","name":"Atlantic Av - Barclays Ctr"},{"arrival":"22:03:00","id":"L19S","lat":"40.695602","lon":"-73.904084","name":"Halsey St"},{"arrival":"22:03:30","id":"D14N","lat":"40.762862","lon":"-73.981637","name":"7 Av"},{"arrival":"22:03:30","id":"248S","lat":"40.669847","lon":"-73.950466","name":"Nostrand Av"},{"arrival":"22:03:30","id":"130S","lat":"40.744081","lon":"-73.995657","name":"23 St"},{"arrival":"22:03:30","id":"A24S","lat":"40.768296","lon":"-73.981736","name":"59 St - Columbus Circle"},{"arrival":"22:03:00","id":"A24S","lat":"40.768296","lon":"-73.981736","name":"59 St - Columbus Circle"},{"arrival":"22:03:00","id":"A24S","lat":"40.768296","lon":"-73.981736","name":"59 St - Columbus Circle"},{"arrival":"22:03:00","id":"A24S","lat":"40.768296","lon":"-73.981736","name":"59 St - Columbus Circle"},{"arrival":"22:03:00","id":"A16S","lat":"40.805085","lon":"-73.954882","name":"116 St"},{"arrival":"22:03:00","id":"138N","lat":"40.711835","lon":"-74.012188","name":"Cortlandt St"},{"arrival":"22:03:30","id":"L16N","lat":"40.703811","lon":"-73.918425","name":"DeKalb Av"},{"arrival":"22:03:00","id":"R17S","lat":"40.749567","lon":"-73.98795","name":"34 St - Herald Sq"},{"arrival":"22:03:30","id":"236N","lat":"40.680829","lon":"-73.975098","name":"Bergen St"},{"arrival":"22:03:30","id":"101S","lat":"40.889248","lon":"-73.898583","name":"Van Cortlandt Park - 242 St"},{"arrival":"22:03:30","id":"716N","lat":"40.744587","lon":"-73.930997","name":"33 St"},{"arrival":"22:03:00","id":"G35N","lat":"40.688089","lon":"-73.966839","name":"Clinton - Washington Avs"},{"arrival":"22:03:30","id":"214N","lat":"40.840295","lon":"-73.880049","name":"West Farms Sq - E Tremont Av"},{"arrival":"22:03:30","id":"214N","lat":"40.840295","lon":"-73.880049","name":"West Farms Sq - E Tremont Av"},{"arrival":"22:03:30","id":"241N","lat":"40.667883","lon":"-73.950683","name":"President St"},{"arrival":"22:03:00","id":"N07N","lat":"40.611815","lon":"-73.981848","name":"Bay Pkwy"},{"arrival":"22:03:00","id":"241S","lat":"40.667883","lon":"-73.950683","name":"President St"},{"arrival":"22:03:00","id":"214S","lat":"40.840295","lon":"-73.880049","name":"West Farms Sq - E Tremont Av"},{"arrival":"22:03:30","id":"A14N","lat":"40.817894","lon":"-73.947649","name":"135 St"},{"arrival":"22:03:00","id":"A14N","lat":"40.817894","lon":"-73.947649","name":"135 St"},{"arrival":"22:03:30","id":"R16N","lat":"40.754672","lon":"-73.986754","name":"Times Sq - 42 St"},{"arrival":"22:03:30","id":"224N","lat":"40.814229","lon":"-73.94077","name":"135 St"},{"arrival":"22:03:30","id":"D17N","lat":"40.749719","lon":"-73.987823","name":"34 St - Herald Sq"},{"arrival":"22:03:00","id":"R16S","lat":"40.754672","lon":"-73.986754","name":"Times Sq - 42 St"},{"arrival":"22:03:30","id":"233N","lat":"40.690545","lon":"-73.985065","name":"Hoyt St"},{"arrival":"22:03:30","id":"116S","lat":"40.815581","lon":"-73.958372","name":"125 St"},{"arrival":"22:03:30","id":"116N","lat":"40.815581","lon":"-73.958372","name":"125 St"},{"arrival":"22:03:30","id":"233S","lat":"40.690545","lon":"-73.985065","name":"Hoyt St"},{"arrival":"22:03:30","id":"233S","lat":"40.690545","lon":"-73.985065","name":"Hoyt St"},{"arrival":"22:03:30","id":"420S","lat":"40.704817","lon":"-74.014065","name":"Bowling Green"},{"arrival":"22:03:30","id":"420S","lat":"40.704817","lon":"-74.014065","name":"Bowling Green"},{"arrival":"22:03:00","id":"A42N","lat":"40.688484","lon":"-73.985001","name":"Hoyt - Schermerhorn Sts"},{"arrival":"22:03:30","id":"902S","lat":"40.755983","lon":"-73.986229","name":"Times Sq - 42 St"},{"arrival":"22:03:30","id":"238S","lat":"40.671987","lon":"-73.964375","name":"Eastern Pkwy - Brooklyn Museum"},{"arrival":"22:03:30","id":"238S","lat":"40.671987","lon":"-73.964375","name":"Eastern Pkwy - Brooklyn Museum"},{"arrival":"22:03:00","id":"R31N","lat":"40.683666","lon":"-73.97881","name":"Atlantic Av - Barclays Ctr"},{"arrival":"22:03:00","id":"L10S","lat":"40.714063","lon":"-73.950275","name":"Lorimer St"},{"arrival":"22:03:00","id":"108N","lat":"40.864621","lon":"-73.918822","name":"207 St"},{"arrival":"22:03:00","id":"F30N","lat":"40.629755","lon":"-73.976971","name":"18 Av"},{"arrival":"22:03:00","id":"D43N","lat":"40.577422","lon":"-73.981233","name":"Coney Island - Stillwell Av"},{"arrival":"22:03:30","id":"L06S","lat":"40.730953","lon":"-73.981628","name":"1 Av"},{"arrival":"22:03:30","id":"R31S","lat":"40.683666","lon":"-73.97881","name":"Atlantic Av - Barclays Ctr"},{"arrival":"22:03:00","id":"R31S","lat":"40.683666","lon":"-73.97881","name":"Atlantic Av - Barclays Ctr"},{"arrival":"22:03:30","id":"L08S","lat":"40.717304","lon":"-73.956872","name":"Bedford Av"},{"arrival":"22:03:30","id":"G05S","lat":"40.702147","lon":"-73.801109","name":"Jamaica Center - Parsons/Archer"},{"arrival":"22:03:00","id":"G20S","lat":"40.752039","lon":"-73.928781","name":"36 St"},{"arrival":"22:03:30","id":"L08N","lat":"40.717304","lon":"-73.956872","name":"Bedford Av"},{"arrival":"22:03:00","id":"F23S","lat":"40.670272","lon":"-73.989779","name":"4 Av"},{"arrival":"22:03:00","id":"F23S","lat":"40.670272","lon":"-73.989779","name":"4 Av"},{"arrival":"22:03:30","id":"G29S","lat":"40.712792","lon":"-73.951418","name":"Metropolitan Av"},{"arrival":"22:03:30","id":"F23N","lat":"40.670272","lon":"-73.989779","name":"4 Av"},{"arrival":"22:03:30","id":"M22N","lat":"40.710374","lon":"-74.007582","name":"Fulton St"},{"arrival":"22:03:30","id":"G32N","lat":"40.694568","lon":"-73.949046","name":"Myrtle - Willoughby Avs"},{"arrival":"22:03:30","id":"F15N","lat":"40.718611","lon":"-73.988114","name":"Delancey St"},{"arrival":"22:03:00","id":"F11S","lat":"40.757552","lon":"-73.969055","name":"Lexington Av/53 St"},{"arrival":"22:03:00","id":"F11S","lat":"40.757552","lon":"-73.969055","name":"Lexington Av/53 St"},{"arrival":"22:03:00","id":"626S","lat":"40.779492","lon":"-73.955589","name":"86 St"},{"arrival":"22:03:00","id":"706N","lat":"40.749865","lon":"-73.8627","name":"103 St - Corona Plaza"},{"arrival":"22:03:30","id":"A32N","lat":"40.732338","lon":"-74.000495","name":"W 4 St"},{"arrival":"22:03:00","id":"706S","lat":"40.749865","lon":"-73.8627","name":"103 St - Corona Plaza"},{"arrival":"22:03:30","id":"B23S","lat":"40.588841","lon":"-73.983765","name":"Bay 50 St"},{"arrival":"22:03:30","id":"626N","lat":"40.779492","lon":"-73.955589","name":"86 St"},{"arrival":"22:03:00","id":"134N","lat":"40.728251","lon":"-74.005367","name":"Houston St"},{"arrival":"22:03:00","id":"F39S","lat":"40.581011","lon":"-73.974574","name":"Neptune Av"},{"arrival":"22:03:00","id":"F39S","lat":"40.581011","lon":"-73.974574","name":"Neptune Av"},{"arrival":"22:03:30","id":"712N","lat":"40.74563","lon":"-73.902984","name":"Woodside - 61 St"},{"arrival":"22:03:00","id":"712S","lat":"40.74563","lon":"-73.902984","name":"Woodside - 61 St"},{"arrival":"22:03:30","id":"M10S","lat":"40.697857","lon":"-73.927397","name":"Central Av"},{"arrival":"22:03:00","id":"701S","lat":"40.7596","lon":"-73.83003","name":"Flushing - Main St"},{"arrival":"22:03:00","id":"D42S","lat":"40.576127","lon":"-73.975939","name":"W 8 St - NY Aquarium"},{"arrival":"22:03:30","id":"A43S","lat":"40.686113","lon":"-73.973946","name":"Lafayette Av"},{"arrival":"22:03:00","id":"A02N","lat":"40.868072","lon":"-73.919899","name":"Inwood - 207 St"},{"arrival":"22:03:00","id":"207N","lat":"40.883895","lon":"-73.862633","name":"219 St"},{"arrival":"22:03:00","id":"207N","lat":"40.883895","lon":"-73.862633","name":"219 St"},{"arrival":"22:03:00","id":"207S","lat":"40.883895","lon":"-73.862633","name":"219 St"},{"arrival":"22:03:00","id":"207S","lat":"40.883895","lon":"-73.862633","name":"219 St"},{"arrival":"22:03:00","id":"112N","lat":"40.840556","lon":"-73.940133","name":"168 St - Washington Hts"},{"arrival":"22:03:00","id":"S27N","lat":"40.603117","lon":"-74.084087","name":"Grasmere"},{"arrival":"22:03:00","id":"R05N","lat":"40.76182","lon":"-73.925508","name":"Broadway"},{"arrival":"22:03:00","id":"R35N","lat":"40.660397","lon":"-73.998091","name":"25 St"},{"arrival":"22:03:00","id":"R35N","lat":"40.660397","lon":"-73.998091","name":"25 St"},{"arrival":"22:03:00","id":"R18S","lat":"40.745494","lon":"-73.988691","name":"28 St"},{"arrival":"22:03:30","id":"D33N","lat":"40.625039","lon":"-73.960803","name":"Avenue J"},{"arrival":"22:03:30","id":"A15S","lat":"40.811109","lon":"-73.952343","name":"125 St"},{"arrival":"22:03:30","id":"A15S","lat":"40.811109","lon":"-73.952343","name":"125 St"},{"arrival":"22:03:30","id":"D15N","lat":"40.758663","lon":"-73.981329","name":"47-50 Sts - Rockefeller Ctr"},{"arrival":"22:03:30","id":"D15N","lat":"40.758663","lon":"-73.981329","name":"47-50 Sts - Rockefeller Ctr"},{"arrival":"22:03:30","id":"A25N","lat":"40.762456","lon":"-73.985984","name":"50 St"},{"arrival":"22:03:00","id":"123N","lat":"40.778453","lon":"-73.98197","name":"72 St"},{"arrival":"22:03:00","id":"A25S","lat":"40.762456","lon":"-73.985984","name":"50 St"},{"arrival":"22:03:30","id":"A15N","lat":"40.811109","lon":"-73.952343","name":"125 St"},{"arrival":"22:03:30","id":"B15S","lat":"40.631435","lon":"-73.995476","name":"55 St"},{"arrival":"22:03:30","id":"B15S","lat":"40.631435","lon":"-73.995476","name":"55 St"},{"arrival":"22:03:30","id":"237S","lat":"40.675235","lon":"-73.971046","name":"Grand Army Plaza"},{"arrival":"22:03:30","id":"237N","lat":"40.675235","lon":"-73.971046","name":"Grand Army Plaza"},{"arrival":"22:03:30","id":"D12N","lat":"40.830135","lon":"-73.938209","name":"155 St"},{"arrival":"22:03:00","id":"S18S","lat":"40.544601","lon":"-74.16457","name":"Eltingville"},{"arrival":"22:03:00","id":"S18S","lat":"40.544601","lon":"-74.16457","name":"Eltingville"},{"arrival":"22:03:00","id":"S18S","lat":"40.544601","lon":"-74.16457","name":"Eltingville"},{"arrival":"22:03:00","id":"406S","lat":"40.86776","lon":"-73.897174","name":"Kingsbridge Rd"},{"arrival":"22:03:00","id":"414S","lat":"40.827994","lon":"-73.925831","name":"161 St - Yankee Stadium"},{"arrival":"22:03:00","id":"414S","lat":"40.827994","lon":"-73.925831","name":"161 St - Yankee Stadium"},{"arrival":"22:03:30","id":"R44S","lat":"40.622687","lon":"-74.028398","name":"86 St"},{"arrival":"22:03:00","id":"H06N","lat":"40.590927","lon":"-73.796924","name":"Beach 67 St"},{"arrival":"22:03:30","id":"406N","lat":"40.86776","lon":"-73.897174","name":"Kingsbridge Rd"},{"arrival":"22:03:30","id":"406N","lat":"40.86776","lon":"-73.897174","name":"Kingsbridge Rd"},{"arrival":"22:03:30","id":"F09N","lat":"40.747846","lon":"-73.946","name":"Court Sq"},{"arrival":"22:03:00","id":"630N","lat":"40.757107","lon":"-73.97192","name":"51 St"},{"arrival":"22:03:30","id":"L29N","lat":"40.646654","lon":"-73.90185","name":"Canarsie - Rockaway Pkwy"},{"arrival":"22:03:30","id":"230N","lat":"40.706821","lon":"-74.0091","name":"Wall St"},{"arrival":"22:03:00","id":"A27N","lat":"40.757308","lon":"-73.989735","name":"42 St - Port Authority Bus Terminal"},{"arrival":"22:03:30","id":"A27S","lat":"40.757308","lon":"-73.989735","name":"42 St - Port Authority Bus Terminal"},{"arrival":"22:03:30","id":"L02S","lat":"40.737335","lon":"-73.996786","name":"6 Av"},{"arrival":"22:03:00","id":"A17S","lat":"40.800603","lon":"-73.958161","name":"Cathedral Pkwy (110 St)"},{"arrival":"22:03:00","id":"J20S","lat":"40.683194","lon":"-73.873785","name":"Crescent St"},{"arrival":"22:03:00","id":"J20S","lat":"40.683194","lon":"-73.873785","name":"Crescent St"},{"arrival":"22:03:00","id":"201S","lat":"40.903125","lon":"-73.85062","name":"Wakefield - 241 St"},{"arrival":"22:03:30","id":"F25N","lat":"40.660365","lon":"-73.979493","name":"15 St - Prospect Park"},{"arrival":"22:03:30","id":"F25S","lat":"40.660365","lon":"-73.979493","name":"15 St - Prospect Park"},{"arrival":"22:03:30","id":"F25S","lat":"40.660365","lon":"-73.979493","name":"15 St - Prospect Park"},{"arrival":"22:03:30","id":"F25S","lat":"40.660365","lon":"-73.979493","name":"15 St - Prospect Park"},{"arrival":"22:03:00","id":"L11N","lat":"40.714565","lon":"-73.944053","name":"Graham Av"},{"arrival":"22:03:00","id":"109S","lat":"40.860531","lon":"-73.925536","name":"Dyckman St"},{"arrival":"22:03:00","id":"F31S","lat":"40.625322","lon":"-73.976127","name":"Avenue I"},{"arrival":"22:03:00","id":"F31S","lat":"40.625322","lon":"-73.976127","name":"Avenue I"},{"arrival":"22:03:00","id":"G18S","lat":"40.756312","lon":"-73.913333","name":"46 St"},{"arrival":"22:03:00","id":"635N","lat":"40.734673","lon":"-73.989951","name":"14 St - Union Sq"},{"arrival":"22:03:00","id":"L24N","lat":"40.675345","lon":"-73.903097","name":"Atlantic Av"},{"arrival":"22:03:00","id":"L24N","lat":"40.675345","lon":"-73.903097","name":"Atlantic Av"},{"arrival":"22:03:30","id":"L24S","lat":"40.675345","lon":"-73.903097","name":"Atlantic Av"},{"arrival":"22:03:30","id":"635S","lat":"40.734673","lon":"-73.989951","name":"14 St - Union Sq"},{"arrival":"22:03:30","id":"G18N","lat":"40.756312","lon":"-73.913333","name":"46 St"},{"arrival":"22:03:30","id":"G18N","lat":"40.756312","lon":"-73.913333","name":"46 St"},{"arrival":"22:03:00","id":"F31N","lat":"40.625322","lon":"-73.976127","name":"Avenue I"},{"arrival":"22:03:00","id":"632S","lat":"40.746081","lon":"-73.982076","name":"33 St"},{"arrival":"22:03:30","id":"J30N","lat":"40.68963","lon":"-73.92227","name":"Gates Av"},{"arrival":"22:03:30","id":"J30N","lat":"40.68963","lon":"-73.92227","name":"Gates Av"},{"arrival":"22:03:30","id":"F22N","lat":"40.67358","lon":"-73.995959","name":"Smith - 9 Sts"},{"arrival":"22:03:30","id":"S03S","lat":"40.674772","lon":"-73.957624","name":"Park Pl"},{"arrival":"22:03:30","id":"617S","lat":"40.805368","lon":"-73.914042","name":"Cypress Av"},{"arrival":"22:03:30","id":"J29N","lat":"40.68637","lon":"-73.916559","name":"Halsey St"},{"arrival":"22:03:30","id":"708S","lat":"40.748408","lon":"-73.876613","name":"90 St - Elmhurst Av"},{"arrival":"22:03:30","id":"A59N","lat":"40.679371","lon":"-73.858992","name":"80 St"},{"arrival":"22:03:00","id":"621N","lat":"40.804138","lon":"-73.937594","name":"125 St"},{"arrival":"22:03:00","id":"S10N","lat":"40.515401","lon":"-74.245689","name":"Atlantic"},{"arrival":"22:03:00","id":"S10N","lat":"40.515401","lon":"-74.245689","name":"Atlantic"},{"arrival":"22:03:00","id":"S10N","lat":"40.515401","lon":"-74.245689","name":"Atlantic"},{"arrival":"22:03:30","id":"R03S","lat":"40.770258","lon":"-73.917843","name":"Astoria Blvd"},{"arrival":"22:03:00","id":"252N","lat":"40.661453","lon":"-73.916327","name":"Saratoga Av"},{"arrival":"22:03:00","id":"252N","lat":"40.661453","lon":"-73.916327","name":"Saratoga Av"},{"arrival":"22:03:30","id":"252S","lat":"40.661453","lon":"-73.916327","name":"Saratoga Av"},{"arrival":"22:03:00","id":"715S","lat":"40.743781","lon":"-73.924016","name":"40 St"},{"arrival":"22:03:00","id":"D11N","lat":"40.827905","lon":"-73.925651","name":"161 St - Yankee Stadium"},{"arrival":"22:03:00","id":"B12N","lat":"40.646292","lon":"-73.994324","name":"9 Av"},{"arrival":"22:03:00","id":"G16N","lat":"40.752885","lon":"-73.906006","name":"Northern Blvd"},{"arrival":"22:03:00","id":"111S","lat":"40.849505","lon":"-73.933596","name":"181 St"},{"arrival":"22:03:00","id":"111S","lat":"40.849505","lon":"-73.933596","name":"181 St"},{"arrival":"22:03:00","id":"L14N","lat":"40.706152","lon":"-73.933147","name":"Morgan Av"},{"arrival":"22:03:30","id":"L14S","lat":"40.706152","lon":"-73.933147","name":"Morgan Av"},{"arrival":"22:03:30","id":"L14S","lat":"40.706152","lon":"-73.933147","name":"Morgan Av"},{"arrival":"22:03:00","id":"A31N","lat":"40.740893","lon":"-74.00169","name":"14 St"},{"arrival":"22:03:30","id":"A03S","lat":"40.865491","lon":"-73.927271","name":"Dyckman St"},{"arrival":"22:03:30","id":"616N","lat":"40.808719","lon":"-73.907657","name":"E 143 St - St Mary's St"},{"arrival":"22:03:00","id":"R04N","lat":"40.766779","lon":"-73.921479","name":"30 Av"},{"arrival":"22:03:00","id":"D11S","lat":"40.827905","lon":"-73.925651","name":"161 St - Yankee Stadium"},{"arrival":"22:03:00","id":"244N","lat":"40.650843","lon":"-73.949575","name":"Church Av"},{"arrival":"22:03:30","id":"R04S","lat":"40.766779","lon":"-73.921479","name":"30 Av"},{"arrival":"22:03:30","id":"A22N","lat":"40.775594","lon":"-73.97641","name":"72 St"},{"arrival":"22:03:00","id":"G06S","lat":"40.700486","lon":"-73.807969","name":"Sutphin Blvd - Archer Av - JFK Airport"},{"arrival":"22:03:00","id":"G06S","lat":"40.700486","lon":"-73.807969","name":"Sutphin Blvd - Archer Av - JFK Airport"},{"arrival":"22:03:00","id":"412N","lat":"40.840075","lon":"-73.917791","name":"170 St"},{"arrival":"22:03:00","id":"R22S","lat":"40.724329","lon":"-73.997702","name":"Prince St"},{"arrival":"22:03:30","id":"G12S","lat":"40.737015","lon":"-73.877223","name":"Grand Av - Newtown"},{"arrival":"22:03:00","id":"412S","lat":"40.840075","lon":"-73.917791","name":"170 St"},{"arrival":"22:03:00","id":"234S","lat":"40.688246","lon":"-73.980492","name":"Nevins St"},{"arrival":"22:03:00","id":"234S","lat":"40.688246","lon":"-73.980492","name":"Nevins St"},{"arrival":"22:03:00","id":"234N","lat":"40.688246","lon":"-73.980492","name":"Nevins St"},{"arrival":"22:03:00","id":"L06N","lat":"40.730953","lon":"-73.981628","name":"1 Av"},{"arrival":"22:03:30","id":"638N","lat":"40.722301","lon":"-73.997141","name":"Spring St"},{"arrival":"22:03:30","id":"H09N","lat":"40.595398","lon":"-73.768175","name":"Beach 36 St"},{"arrival":"22:03:30","id":"622N","lat":"40.798629","lon":"-73.941617","name":"116 St"},{"arrival":"22:03:30","id":"622S","lat":"40.798629","lon":"-73.941617","name":"116 St"},{"arrival":"22:03:30","id":"L28S","lat":"40.650573","lon":"-73.899485","name":"E 105 St"},{"arrival":"22:03:00","id":"723N","lat":"40.751431","lon":"-73.976041","name":"Grand Central - 42 St"},{"arrival":"22:03:00","id":"631S","lat":"40.751776","lon":"-73.976848","name":"Grand Central - 42 St"},{"arrival":"22:03:00","id":"631S","lat":"40.751776","lon":"-73.976848","name":"Grand Central - 42 St"},{"arrival":"22:03:30","id":"631N","lat":"40.751776","lon":"-73.976848","name":"Grand Central - 42 St"},{"arrival":"22:03:00","id":"723S","lat":"40.751431","lon":"-73.976041","name":"Grand Central - 42 St"},{"arrival":"22:03:30","id":"612N","lat":"40.826525","lon":"-73.886283","name":"Whitlock Av"},{"arrival":"22:03:30","id":"114S","lat":"40.826551","lon":"-73.95036","name":"145 St"},{"arrival":"22:03:30","id":"604N","lat":"40.839892","lon":"-73.842952","name":"Westchester Sq - E Tremont Av"},{"arrival":"22:03:00","id":"604S","lat":"40.839892","lon":"-73.842952","name":"Westchester Sq - E Tremont Av"},{"arrival":"22:03:00","id":"702N","lat":"40.754622","lon":"-73.845625","name":"Mets - Willets Point"},{"arrival":"22:03:00","id":"A28N","lat":"40.752287","lon":"-73.993391","name":"34 St - Penn Station"},{"arrival":"22:03:30","id":"G08S","lat":"40.721691","lon":"-73.844521","name":"Forest Hills - 71 Av"},{"arrival":"22:03:00","id":"D41N","lat":"40.576312","lon":"-73.968501","name":"Ocean Pkwy"},{"arrival":"22:03:00","id":"718S","lat":"40.750582","lon":"-73.940202","name":"Queensboro Plaza"},{"arrival":"22:03:00","id":"G08N","lat":"40.721691","lon":"-73.844521","name":"Forest Hills - 71 Av"},{"arrival":"22:03:00","id":"G08N","lat":"40.721691","lon":"-73.844521","name":"Forest Hills - 71 Av"},{"arrival":"22:03:30","id":"G12N","lat":"40.737015","lon":"-73.877223","name":"Grand Av - Newtown"},{"arrival":"22:03:00","id":"G12N","lat":"40.737015","lon":"-73.877223","name":"Grand Av - Newtown"},{"arrival":"22:03:30","id":"A36S","lat":"40.714111","lon":"-74.008585","name":"Chambers St"},{"arrival":"22:03:30","id":"A36S","lat":"40.714111","lon":"-74.008585","name":"Chambers St"},{"arrival":"22:03:30","id":"702S","lat":"40.754622","lon":"-73.845625","name":"Mets - Willets Point"}]}